3ô&Êf6∆6v∆∆∆SVÜ÷
$GPGGA,152934.000,1332.9547,N,07959.9708,E,1,04,4.8,26.8,M,-86.9,M,,0000*42

$GPGSA,A,3,06,30,02,13,,,,,,,,,6.9,4.8,4.9*39

$GPGSV,3,1,12,06,79,203,31,30,41,159,37,02,38,217,38,13,19,243,27*70

$GPGSV,3,2,12,07,04,151,33,19,44,338,,04,43,218,,28,42,062,*7D

$GPGSV,3,3,12,17,37,005,,24,07,319,,03,05,063,,57,04,222,*70

$GPRMC,152934.000,A,1332.9547,N,07959.9708,E,0.00,22.63,010317,,,A*5F

$GPGGA,152935.000,1332.9547,N,07959.9708,E,1,04,4.8,26.8,M,-86.9,M,,0000*43

$GPGSA,A,3,06,30,02,13,,,,,,,,,6.9,4.8,4.9*39

$GPRMC,152935.000,A,1332.9547,N,07959.9708,E,0.00,22.63,010317,,,A*5E

$GPGGA,152936.000,1332.9547,N,07959.9708,E,1,04,4.8,26.8,M,-86.9,M,,0000*40

$GPGSA,A,3,06,30,02,13,,,,,,,,,6.9,4.8,4.9*39

$GPRMC,152936.000,A,1332.9547,N,07959.9708,E,0.00,22.63,010317,,,A*5D

$GPGGA,152937.000,1332.9547,N,07959.9708,E,1,04,4.8,26.8,M,-86.9,M,,0000*41

$GPGSA,A,3,06,30,02,13,,,,,,,,,6.9,4.8,4.9*39

$GPRMC,152937.000,A,1332.9547,N,07959.9708,E,0.00,22.63,010317,,,A*5C

$GPGGA,152938.000,1332.9547,N,07959.9708,E,1,04,4.8,26.8,M,-86.9,M,,0000*4E

$GPGSA,A,3,06,30,02,13,,,,,,,,,6.9,4.8,4.9*39

$GPRMC,152938.000,A,1332.9547,N,07959.9708,E,0.00,22.63,010317,,,A*53

$GPGGA,152939.000,1332.9547,N,07959.9708,E,1,04,4.8,26.8,M,-86.9,M,,0000*4F

$GPGSA,A,3,06,30,02,13,,,,,,,,,6.9,4.8,4.9*39

$GPGSV,3,1,12,06,79,203,31,30,41,159,37,02,38,217,38,13,19,243,27*70

$GPGSV,3,2,12,07,04,151,32,19,44,338,,04,43,218,,28,42,062,*7C

$GPGSV,3,3,12,17,37,005,,24,07,319,,03,05,063,,57,04,222,*70

$GPRMC,152939.000,A,1332.9547,N,07959.9708,E,0.00,22.63,010317,,,A*52

$GPGGA,152940.000,1332.9547,N,07959.9708,E,1,04,4.8,26.8,M,-86.9,M,,0000*41

$GPGSA,A,3,06,30,02,13,,,,,,,,,6.9,4.8,4.9*39

$GPRMC,152940.000,A,1332.9547,N,07959.9708,E,0.00,22.63,010317,,,A*5C

$GPGGA,152941.000,1332.9547,N,07959.9708,E,1,04,4.8,26.8,M,-86.9,M,,0000*40

$GPGSA,A,3,06,30,02,13,,,,,,,,,6.9,4.8,4.9*39

$GPRMC,152941.000,A,1332.9547,N,07959.9708,E,0.00,22.63,010317,,,A*5D

$GPGGA,152942.000,1332.9547,N,07959.9708,E,1,04,4.8,26.8,M,-86.9,M,,0000*43

$GPGSA,A,3,06,30,02,13,,,,,,,,,6.9,4.8,4.9*39

$GPRMC,152942.000,A,1332.9547,N,07959.9708,E,0.00,22.63,010317,,,A*5E

$GPGGA,152943.000,1332.9547,N,07959.9708,E,1,04,4.8,26.8,M,-86.9,M,,0000*42

$GPGSA,A,3,06,30,02,13,,,,,,,,,6.9,4.8,4.9*39

$GPRMC,152943.000,A,1332.9547,N,07959.9708,E,0.00,22.63,010317,,,A*5F

$GPGGA,152944.000,1332.9547,N,07959.9708,E,1,04,4.8,26.8,M,-86.9,M,,0000*45

$GPGSA,A,3,06,30,02,13,,,,,,,,,6.9,4.8,4.9*39

$GPGSV,3,1,12,06,79,203,31,30,41,159,37,02,38,217,38,13,19,243,27*70

$GPGSV,3,2,12,07,04,151,32,28,42,062,15,19,44,338,,04,43,218,*78

$GPGSV,3,3,12,17,37,005,,24,07,319,,03,05,063,,57,04,222,*70

$GPRMC,152944.000,A,1332.9547,N,07959.9708,E,0.00,22.63,010317,,,A*58

$GPGGA,152945.000,1332.9547,N,07959.9708,E,1,04,4.8,26.8,M,-86.9,M,,0000*44

$GPGSA,A,3,06,30,02,13,,,,,,,,,6.9,4.8,4.9*39

$GPRMC,152945.000,A,1332.9547,N,07959.9708,E,0.00,22.63,010317,,,A*59

$GPGGA,152946.000,1332.9547,N,07959.9708,E,1,04,4.8,26.8,M,-86.9,M,,0000*47

$GPGSA,A,3,06,30,02,13,,,,,,,,,6.9,4.8,4.9*39

$GPRMC,152946.000,A,1332.9547,N,07959.9708,E,0.00,22.63,010317,,,A*5A

$GPGGA,152947.000,1332.9547,N,07959.9708,E,1,04,4.8,26.8,M,-86.9,M,,0000*46

$GPGSA,A,3,06,30,02,13,,,,,,,,,6.9,4.8,4.9*39

$GPRMC,152947.000,A,1332.9547,N,07959.9708,E,0.00,22.63,010317,,,A*5B

$GPGGA,152948.000,1332.9547,N,07959.9708,E,1,04,4.8,26.8,M,-86.9,M,,0000*49

$GPGSA,A,3,06,30,02,13,,,,,,,,,6.9,4.8,4.9*39

$GPRMC,152948.000,A,1332.9547,N,07959.9708,E,0.00,22.63,010317,,,A*54

$GPGGA,152949.000,1332.9547,N,07959.9708,E,1,04,4.8,26.8,M,-86.9,M,,0000*48

$GPGSA,A,3,06,30,02,13,,,,,,,,,6.9,4.8,4.9*39

$GPGSV,3,1,12,06,79,203,30,30,41,159,36,02,38,217,37,13,19,243,26*7E

$GPGSV,3,2,12,07,04,151,31,19,44,338,,04,43,218,,28,42,062,*7F

$GPGSV,3,3,12,17,37,005,,24,07,319,,03,05,063,,57,04,222,*70

$GPRMC,152949.000,A,1332.9547,N,07959.9708,E,0.00,22.63,010317,,,A*55

$GPGGA,152950.000,1332.9547,N,07959.9708,E,1,04,4.8,26.8,M,-86.9,M,,0000*40

$GPGSA,A,3,06,30,02,13,,,,,,,,,6.9,4.8,4.9*39

$GPRMC,152950.000,A,1332.9547,N,07959.9708,E,0.00,22.63,010317,,,A*5D

$GPGGA,152951.000,1332.9547,N,07959.9708,E,1,04,4.8,26.8,M,-86.9,M,,0000*41

$GPGSA,A,3,06,30,02,13,,,,,,,,,6.9,4.8,4.9*39

$GPRMC,152951.000,A,1332.9547,N,07959.9708,E,0.00,22.63,010317,,,A*5C

$GPGGA,152952.000,1332.9547,N,07959.9708,E,1,04,4.8,26.8,M,-86.9,M,,0000*42

$GPGSA,A,3,06,30,02,13,,,,,,,,,6.9,4.8,4.9*39

$GPRMC,152952.000,A,1332.9547,N,07959.9708,E,0.00,22.63,010317,,,A*5F

$GPGGA,152953.000,1332.9547,N,07959.9708,E,1,04,4.8,26.8,M,-86.9,M,,0000*43

$GPGSA,A,3,06,30,02,13,,,,,,,,,6.9,4.8,4.9*39

$GPRMC,152953.000,A,1332.9547,N,07959.9708,E,0.00,22.63,010317,,,A*5E

$GPGGA,152954.000,1332.9547,N,07959.9708,E,1,04,4.8,26.8,M,-86.9,M,,0000*44

$GPGSA,A,3,06,30,02,13,,,,,,,,,6.9,4.8,4.9*39

$GPGSV,3,1,12,06,79,203,30,30,41,159,36,02,38,217,37,13,19,243,26*7E

$GPGSV,3,2,12,07,04,151,31,19,44,338,,04,43,218,,28,42,062,*7F

$GPGSV,3,3,12,17,37,005,,24,07,319,,03,05,063,,57,04,222,*70

$GPRMC,152954.000,A,1332.9547,N,07959.9708,E,0.00,22.63,010317,,,A*59

$GPGGA,152955.000,1332.9547,N,07959.9708,E,1,04,4.8,26.8,M,-86.9,M,,0000*45

$GPGSA,A,3,06,30,02,13,,,,,,,,,6.9,4.8,4.9*39

$GPRMC,152955.000,A,1332.9547,N,07959.9708,E,0.00,22.63,010317,,,A*58

$GPGGA,152956.000,1332.9547,N,07959.9708,E,1,04,4.8,26.8,M,-86.9,M,,0000*46

$GPGSA,A,3,06,30,02,13,,,,,,,,,6.9,4.8,4.9*39

$GPRMC,152956.000,A,1332.9547,N,07959.9708,E,0.00,22.63,010317,,,A*5B

$GPGGA,152957.000,1332.9547,N,07959.9708,E,1,04,4.8,26.8,M,-86.9,M,,0000*47

$GPGSA,A,3,06,30,02,13,,,,,,,,,6.9,4.8,4.9*39

$GPRMC,152957.000,A,1332.9547,N,07959.9708,E,0.00,22.63,010317,,,A*5A

$GPGGA,152958.000,1332.9547,N,07959.9708,E,1,04,4.8,26.8,M,-86.9,M,,0000*48

$GPGSA,A,3,06,30,02,13,,,,,,,,,6.9,4.8,4.9*39

$GPRMC,152958.000,A,1332.9547,N,07959.9708,E,0.00,22.63,010317,,,A*55

$GPGGA,152959.000,1332.9547,N,07959.9708,E,1,04,4.8,26.8,M,-86.9,M,,0000*49

$GPGSA,A,3,06,30,02,13,,,,,,,,,6.9,4.8,4.9*39

$GPGSV,3,1,12,06,79,203,30,30,41,159,37,02,38,217,38,13,19,243,26*70

$GPGSV,3,2,12,07,04,151,31,24,07,319,15,19,44,338,,04,43,218,*79

$GPGSV,3,3,12,28,42,062,,17,37,005,,03,05,063,,57,04,222,*72

$GPRMC,152959.000,A,1332.9547,N,07959.9708,E,0.00,22.63,010317,,,A*54

$GPGGA,153000.000,1332.9547,N,07959.9708,E,1,04,4.8,26.8,M,-86.9,M,,0000*4D

$GPGSA,A,3,06,30,02,13,,,,,,,,,6.9,4.8,4.9*39

$GPRMC,153000.000,A,1332.9547,N,07959.9708,E,0.00,22.63,010317,,,A*50

$GPGGA,153001.000,1332.9547,N,07959.9708,E,1,04,4.8,26.8,M,-86.9,M,,0000*4C

$GPGSA,A,3,06,30,02,13,,,,,,,,,6.9,4.8,4.9*39

$GPRMC,153001.000,A,1332.9547,N,07959.9708,E,0.00,22.63,010317,,,A*51

$GPGGA,153002.000,1332.9547,N,07959.9708,E,1,04,4.8,26.8,M,-86.9,M,,0000*4F

$GPGSA,A,3,06,30,02,13,,,,,,,,,6.9,4.8,4.9*39

$GPRMC,153002.000,A,1332.9547,N,07959.9708,E,0.00,22.63,010317,,,A*52

$GPGGA,153003.000,1332.9547,N,07959.9708,E,1,04,4.8,26.8,M,-86.9,M,,0000*4E

$GPGSA,A,3,06,30,02,13,,,,,,,,,6.9,4.8,4.9*39

$GPRMC,153003.000,A,1332.9547,N,07959.9708,E,0.00,22.63,010317,,,A*53

$GPGGA,153004.000,1332.9547,N,07959.9708,E,1,04,4.8,26.8,M,-86.9,M,,0000*49

$GPGSA,A,3,06,30,02,13,,,,,,,,,6.9,4.8,4.9*39

$GPGSV,3,1,12,06,79,203,31,30,41,159,37,02,38,217,39,13,19,243,27*71

$GPGSV,3,2,12,07,04,151,31,24,07,319,17,19,44,338,,04,43,218,*7B

$GPGSV,3,3,12,28,42,062,,17,37,005,,03,05,063,,57,04,222,*72

$GPRMC,153004.000,A,1332.9547,N,07959.9708,E,0.00,22.63,010317,,,A*54

$GPGGA,153005.000,1332.9547,N,07959.9708,E,1,04,4.8,26.8,M,-86.9,M,,0000*48

$GPGSA,A,3,06,30,02,13,,,,,,,,,6.9,4.8,4.9*39

$GPRMC,153005.000,A,1332.9547,N,07959.9708,E,0.00,22.63,010317,,,A*55

$GPGGA,153006.000,1332.9547,N,07959.9708,E,1,04,4.8,26.8,M,-86.9,M,,0000*4B

$GPGSA,A,3,06,30,02,13,,,,,,,,,6.9,4.8,4.9*39

$GPRMC,153006.000,A,1332.9547,N,07959.9708,E,0.00,22.63,010317,,,A*56

$GPGGA,153007.000,1332.9547,N,07959.9708,E,1,04,4.8,26.8,M,-86.9,M,,0000*4A

$GPGSA,A,3,06,30,02,13,,,,,,,,,6.9,4.8,4.9*39

$GPRMC,153007.000,A,1332.9547,N,07959.9708,E,0.00,22.63,010317,,,A*57

$GPGGA,153008.000,1332.9547,N,07959.9708,E,1,04,4.8,26.8,M,-86.9,M,,0000*45

$GPGSA,A,3,06,30,02,13,,,,,,,,,6.9,4.8,4.9*39

$GPRMC,153008.000,A,1332.9547,N,07959.9708,E,0.00,22.63,010317,,,A*58

$GPGGA,153009.000,1332.9547,N,07959.9708,E,1,04,4.8,26.8,M,-86.9,M,,0000*44

$GPGSA,A,3,06,30,02,13,,,,,,,,,6.9,4.8,4.9*39

$GPGSV,3,1,12,06,79,203,32,30,41,159,38,02,38,217,40,13,19,243,29*7D

$GPGSV,3,2,12,07,04,151,31,24,07,319,16,28,42,062,14,19,44,338,*7F

$GPGSV,3,3,12,04,43,218,,17,37,005,,03,05,063,,57,04,222,*72

$GPRMC,153009.000,A,1332.9547,N,07959.9708,E,0.00,22.63,010317,,,A*59

$GPGGA,153010.000,1332.9547,N,07959.9708,E,1,04,4.8,26.8,M,-86.9,M,,0000*4C

$GPGSA,A,3,06,30,02,13,,,,,,,,,6.9,4.8,4.9*39

$GPRMC,153010.000,A,1332.9547,N,07959.9708,E,0.00,22.63,010317,,,A*51

$GPGGA,153011.000,1332.9547,N,07959.9708,E,1,04,4.8,26.8,M,-86.9,M,,0000*4D

$GPGSA,A,3,06,30,02,13,,,,,,,,,6.9,4.8,4.9*39

$GPRMC,153011.000,A,1332.9547,N,07959.9708,E,0.00,22.63,010317,,,A*50

$GPGGA,153012.000,1332.9547,N,07959.9708,E,1,04,4.8,26.8,M,-86.9,M,,0000*4E

$GPGSA,A,3,06,30,02,13,,,,,,,,,6.8,4.8,4.9*38

$GPRMC,153012.000,A,1332.9547,N,07959.9708,E,0.00,22.63,010317,,,A*53

$GPGGA,153013.000,1332.9547,N,07959.9708,E,1,04,4.8,26.8,M,-86.9,M,,0000*4F

$GPGSA,A,3,06,30,02,13,,,,,,,,,6.8,4.8,4.9*38

$GPRMC,153013.000,A,1332.9547,N,07959.9708,E,0.00,22.63,010317,,,A*52

$GPGGA,153014.000,1332.9547,N,07959.9708,E,1,04,4.8,26.8,M,-86.9,M,,0000*48

$GPGSA,A,3,06,30,02,13,,,,,,,,,6.8,4.8,4.9*38

$GPGSV,3,1,12,06,79,203,32,30,41,159,38,02,38,217,40,13,19,243,30*75

$GPGSV,3,2,12,07,04,151,31,24,07,319,16,19,44,338,,04,43,218,*7A

$GPGSV,3,3,12,28,42,062,,17,37,005,,03,05,063,,57,04,222,*72

$GPRMC,153014.000,A,1332.9547,N,07959.9708,E,0.00,22.63,010317,,,A*55

$GPGGA,153015.000,1332.9547,N,07959.9708,E,1,04,4.8,26.8,M,-86.9,M,,0000*49

$GPGSA,A,3,06,30,02,13,,,,,,,,,6.8,4.8,4.9*38

$GPRMC,153015.000,A,1332.9547,N,07959.9708,E,0.00,22.63,010317,,,A*54

$GPGGA,153016.000,1332.9547,N,07959.9708,E,1,04,4.8,26.8,M,-86.9,M,,0000*4A

$GPGSA,A,3,06,30,02,13,,,,,,,,,6.8,4.8,4.9*38

$GPRMC,153016.000,A,1332.9547,N,07959.9708,E,0.00,22.63,010317,,,A*57

$GPGGA,153017.000,1332.9547,N,07959.9708,E,1,04,4.8,26.8,M,-86.9,M,,0000*4B

$GPGSA,A,3,06,30,02,13,,,,,,,,,6.8,4.8,4.9*38

$GPRMC,153017.000,A,1332.9547,N,07959.9708,E,0.00,22.63,010317,,,A*56

$GPGGA,153018.000,1332.9547,N,07959.9708,E,1,04,4.8,26.8,M,-86.9,M,,0000*44

$GPGSA,A,3,06,30,02,13,,,,,,,,,6.8,4.8,4.9*38

$GPRMC,153018.000,A,1332.9547,N,07959.9708,E,0.00,22.63,010317,,,A*59

$GPGGA,153019.000,1332.9547,N,07959.9708,E,1,04,4.8,26.8,M,-86.9,M,,0000*45

$GPGSA,A,3,06,30,02,13,,,,,,,,,6.8,4.8,4.9*38

$GPGSV,3,1,12,06,79,203,32,30,41,159,38,02,38,217,40,13,19,243,30*75

$GPGSV,3,2,12,07,04,151,31,24,07,319,16,19,44,338,,04,43,218,*7A

$GPGSV,3,3,12,28,42,062,,17,37,005,,03,05,063,,57,04,222,*72

$GPRMC,153019.000,A,1332.9547,N,07959.9708,E,0.00,22.63,010317,,,A*58

$GPGGA,153020.000,1332.9547,N,07959.9708,E,1,04,4.8,26.8,M,-86.9,M,,0000*4F

$GPGSA,A,3,06,30,02,13,,,,,,,,,6.8,4.8,4.9*38

$GPRMC,153020.000,A,1332.9547,N,07959.9708,E,0.00,22.63,010317,,,A*52

$GPGGA,153021.000,1332.9547,N,07959.9708,E,1,04,4.8,26.8,M,-86.9,M,,0000*4E

$GPGSA,A,3,06,30,02,13,,,,,,,,,6.8,4.8,4.9*38

$GPRMC,153021.000,A,1332.9547,N,07959.9708,E,0.00,22.63,010317,,,A*53

$GPGGA,153022.000,1332.9547,N,07959.9708,E,1,04,4.8,26.8,M,-86.9,M,,0000*4D

$GPGSA,A,3,06,30,02,13,,,,,,,,,6.8,4.8,4.9*38

$GPRMC,153022.000,A,1332.9547,N,07959.9708,E,0.00,22.63,010317,,,A*50

$GPGGA,153023.000,1332.9547,N,07959.9708,E,1,04,4.8,26.8,M,-86.9,M,,0000*4C

$GPGSA,A,3,06,30,02,13,,,,,,,,,6.8,4.8,4.9*38

$GPRMC,153023.000,A,1332.9547,N,07959.9708,E,0.00,22.63,010317,,,A*51

$GPGGA,153024.000,1332.9547,N,07959.9708,E,1,04,4.8,26.8,M,-86.9,M,,0000*4B

$GPGSA,A,3,06,30,02,13,,,,,,,,,6.8,4.8,4.9*38

$GPGSV,3,1,12,06,79,203,32,30,41,159,39,02,38,217,40,13,19,243,31*75

$GPGSV,3,2,12,07,04,151,32,19,44,338,,04,43,218,,28,42,062,*7C

$GPGSV,3,3,12,17,37,005,,24,07,319,,03,05,063,,57,04,222,*70

$GPRMC,153024.000,A,1332.9547,N,07959.9708,E,0.00,22.63,010317,,,A*56

$GPGGA,153025.000,1332.9548,N,07959.9708,E,1,04,4.7,26.8,M,-86.9,M,,0000*4A

$GPGSA,A,3,06,30,02,13,,,,,,,,,6.8,4.7,4.9*37

$GPRMC,153025.000,A,1332.9548,N,07959.9708,E,0.00,22.63,010317,,,A*58

$GPGGA,153026.000,1332.9548,N,07959.9708,E,1,04,4.7,26.8,M,-86.9,M,,0000*49

$GPGSA,A,3,06,30,02,13,,,,,,,,,6.8,4.7,4.9*37

$GPRMC,153026.000,A,1332.9548,N,07959.9708,E,0.00,22.63,010317,,,A*5B

$GPGGA,153027.000,1332.9548,N,07959.9708,E,1,04,4.7,26.8,M,-86.9,M,,0000*48

$GPGSA,A,3,06,30,02,13,,,,,,,,,6.8,4.7,4.9*37

$GPRMC,153027.000,A,1332.9548,N,07959.9708,E,0.00,22.63,010317,,,A*5A

$GPGGA,153028.000,1332.9548,N,07959.9708,E,1,04,4.7,26.8,M,-86.9,M,,0000*47

$GPGSA,A,3,06,30,02,13,,,,,,,,,6.8,4.7,4.9*37

$GPRMC,153028.000,A,1332.9548,N,07959.9708,E,0.00,22.63,010317,,,A*55

$GPGGA,153029.000,1332.9548,N,07959.9708,E,1,04,4.7,26.8,M,-86.9,M,,0000*46

$GPGSA,A,3,06,30,02,13,,,,,,,,,6.8,4.7,4.9*37

$GPGSV,3,1,12,06,79,203,32,30,41,159,39,02,38,217,41,13,19,243,31*74

$GPGSV,3,2,12,07,04,151,32,24,07,319,18,19,44,338,,04,43,218,*77

$GPGSV,3,3,12,28,42,062,,17,37,005,,03,05,063,,57,04,222,*72

$GPRMC,153029.000,A,1332.9548,N,07959.9708,E,0.00,22.63,010317,,,A*54

$GPGGA,153030.000,1332.9548,N,07959.9708,E,1,04,4.7,26.8,M,-86.9,M,,0000*4E

$GPGSA,A,3,06,30,02,13,,,,,,,,,6.8,4.7,4.9*37

$GPRMC,153030.000,A,1332.9548,N,07959.9708,E,0.00,22.63,010317,,,A*5C

$GPGGA,153031.000,1332.9548,N,07959.9708,E,1,04,4.7,26.8,M,-86.9,M,,0000*4F

$GPGSA,A,3,06,30,02,13,,,,,,,,,6.8,4.7,4.9*37

$GPRMC,153031.000,A,1332.9548,N,07959.9708,E,0.00,22.63,010317,,,A*5D

$GPGGA,153032.000,1332.9548,N,07959.9708,E,1,04,4.7,26.8,M,-86.9,M,,0000*4C

$GPGSA,A,3,06,30,02,13,,,,,,,,,6.8,4.7,4.9*37

$GPRMC,153032.000,A,1332.9548,N,07959.9708,E,0.00,22.63,010317,,,A*5E

$GPGGA,153033.000,1332.9548,N,07959.9708,E,1,04,4.7,26.8,M,-86.9,M,,0000*4D

$GPGSA,A,3,06,30,02,13,,,,,,,,,6.8,4.7,4.9*37

$GPRMC,153033.000,A,1332.9548,N,07959.9708,E,0.00,22.63,010317,,,A*5F

$GPGGA,153034.000,1332.9548,N,07959.9708,E,1,04,4.7,26.8,M,-86.9,M,,0000*4A

$GPGSA,A,3,06,30,02,13,,,,,,,,,6.8,4.7,4.9*37

$GPGSV,3,1,12,06,79,203,32,30,41,159,38,02,38,217,40,13,19,243,26*72

$GPGSV,3,2,12,07,04,151,32,24,07,319,18,19,44,338,,04,43,218,*77

$GPGSV,3,3,12,28,42,062,,17,37,005,,03,05,063,,57,04,222,*72

$GPRMC,153034.000,A,1332.9548,N,07959.9708,E,0.00,22.63,010317,,,A*58

$GPGGA,153035.000,1332.9548,N,07959.9708,E,1,04,4.7,26.8,M,-86.9,M,,0000*4B

$GPGSA,A,3,06,30,02,13,,,,,,,,,6.8,4.7,4.9*37

$GPRMC,153035.000,A,1332.9548,N,07959.9708,E,0.00,22.63,010317,,,A*59

$GPGGA,153036.000,1332.9548,N,07959.9708,E,1,04,4.7,26.8,M,-86.9,M,,0000*48

$GPGSA,A,3,06,30,02,13,,,,,,,,,6.8,4.7,4.9*37

$GPRMC,153036.000,A,1332.9548,N,07959.9708,E,0.00,22.63,010317,,,A*5A

$GPGGA,153037.000,1332.9548,N,07959.9708,E,1,04,4.7,26.8,M,-86.9,M,,0000*49

$GPGSA,A,3,06,30,02,13,,,,,,,,,6.8,4.7,4.9*37

$GPRMC,153037.000,A,1332.9548,N,07959.9708,E,0.00,22.63,010317,,,A*5B

$GPGGA,153038.000,1332.9548,N,07959.9708,E,1,04,4.7,26.8,M,-86.9,M,,0000*46

$GPGSA,A,3,06,30,02,13,,,,,,,,,6.8,4.7,4.9*37

$GPRMC,153038.000,A,1332.9548,N,07959.9708,E,0.00,22.63,010317,,,A*54

$GPGGA,153039.000,1332.9548,N,07959.9708,E,1,04,4.7,26.8,M,-86.9,M,,0000*47

$GPGSA,A,3,06,30,02,13,,,,,,,,,6.8,4.7,4.9*37

$GPGSV,3,1,12,06,80,205,31,30,40,159,37,02,38,217,39,13,19,242,25*73

$GPGSV,3,2,12,07,04,151,32,19,44,339,,04,42,218,,28,42,063,*7D

$GPGSV,3,3,12,17,37,006,,24,08,319,,03,05,062,,57,04,222,*7D

$GPRMC,153039.000,A,1332.9548,N,07959.9708,E,0.00,22.63,010317,,,A*55

$GPGGA,153040.000,1332.9548,N,07959.9708,E,1,04,4.7,26.8,M,-86.9,M,,0000*49

$GPGSA,A,3,06,30,02,13,,,,,,,,,6.8,4.7,4.9*37

$GPRMC,153040.000,A,1332.9548,N,07959.9708,E,0.00,22.63,010317,,,A*5B

$GPGGA,153041.000,1332.9548,N,07959.9708,E,1,04,4.7,26.8,M,-86.9,M,,0000*48

$GPGSA,A,3,06,30,02,13,,,,,,,,,6.8,4.7,4.9*37

$GPRMC,153041.000,A,1332.9548,N,07959.9708,E,0.00,22.63,010317,,,A*5A

$GPGGA,153042.000,1332.9548,N,07959.9708,E,1,04,4.7,26.8,M,-86.9,M,,0000*4B

$GPGSA,A,3,06,30,02,13,,,,,,,,,6.8,4.7,4.9*37

$GPRMC,153042.000,A,1332.9548,N,07959.9708,E,0.00,22.63,010317,,,A*59

$GPGGA,153043.000,1332.9548,N,07959.9708,E,1,04,4.7,26.8,M,-86.9,M,,0000*4A

$GPGSA,A,3,06,30,02,13,,,,,,,,,6.8,4.7,4.9*37

$GPRMC,153043.000,A,1332.9548,N,07959.9708,E,0.00,22.63,010317,,,A*58

$GPGGA,153044.000,1332.9548,N,07959.9708,E,1,04,4.7,26.8,M,-86.9,M,,0000*4D

$GPGSA,A,3,06,30,02,13,,,,,,,,,6.8,4.7,4.9*37

$GPGSV,3,1,12,06,80,205,32,30,40,159,36,02,38,217,39,13,19,242,25*71

$GPGSV,3,2,12,07,03,151,33,24,08,319,20,19,44,339,,04,42,218,*75

$GPGSV,3,3,12,28,42,063,,17,37,006,,03,05,062,,57,04,222,*71

$GPRMC,153044.000,A,1332.9548,N,07959.9708,E,0.00,22.63,010317,,,A*5F

$GPGGA,153045.000,1332.9548,N,07959.9708,E,1,04,4.7,26.8,M,-86.9,M,,0000*4C

$GPGSA,A,3,06,30,02,13,,,,,,,,,6.8,4.7,4.9*37

$GPRMC,153045.000,A,1332.9548,N,07959.9708,E,0.00,22.63,010317,,,A*5E

$GPGGA,153046.000,1332.9548,N,07959.9708,E,1,04,4.7,26.8,M,-86.9,M,,0000*4F

$GPGSA,A,3,06,30,02,13,,,,,,,,,6.8,4.7,4.9*37

$GPRMC,153046.000,A,1332.9548,N,07959.9708,E,0.00,22.63,010317,,,A*5D

$GPGGA,153047.000,1332.9548,N,07959.9708,E,1,04,4.7,26.8,M,-86.9,M,,0000*4E

$GPGSA,A,3,06,30,02,13,,,,,,,,,6.8,4.7,4.9*37

$GPRMC,153047.000,A,1332.9548,N,07959.9708,E,0.00,22.63,010317,,,A*5C

$GPGGA,153048.000,1332.9548,N,07959.9708,E,1,04,4.7,26.8,M,-86.9,M,,0000*41

$GPGSA,A,3,06,30,02,13,,,,,,,,,6.8,4.7,4.9*37

$GPRMC,153048.000,A,1332.9548,N,07959.9708,E,0.00,22.63,010317,,,A*53

$GPGGA,153049.000,1332.9548,N,07959.9708,E,1,04,4.7,26.8,M,-86.9,M,,0000*40

$GPGSA,A,3,06,30,02,13,,,,,,,,,6.8,4.7,4.9*37

$GPGSV,3,1,12,06,80,205,32,30,40,159,36,02,38,217,39,13,19,242,25*71

$GPGSV,3,2,12,07,03,151,33,24,08,319,19,19,44,339,,04,42,218,*7F

$GPGSV,3,3,12,28,42,063,,17,37,006,,03,05,062,,57,04,222,*71

$GPRMC,153049.000,A,1332.9548,N,07959.9708,E,0.00,22.63,010317,,,A*52

$GPGGA,153050.000,1332.9548,N,07959.9708,E,1,04,4.7,26.8,M,-86.9,M,,0000*48

$GPGSA,A,3,06,30,02,13,,,,,,,,,6.8,4.7,4.9*37

$GPRMC,153050.000,A,1332.9548,N,07959.9708,E,0.00,22.63,010317,,,A*5A

$GPGGA,153051.000,1332.9548,N,07959.9708,E,1,04,4.7,26.8,M,-86.9,M,,0000*49

$GPGSA,A,3,06,30,02,13,,,,,,,,,6.8,4.7,4.9*37

$GPRMC,153051.000,A,1332.9548,N,07959.9708,E,0.00,22.63,010317,,,A*5B

$GPGGA,153052.000,1332.9548,N,07959.9708,E,1,04,4.7,26.8,M,-86.9,M,,0000*4A

$GPGSA,A,3,06,30,02,13,,,,,,,,,6.8,4.7,4.9*37

$GPRMC,153052.000,A,1332.9548,N,07959.9708,E,0.00,22.63,010317,,,A*58

$GPGGA,153053.000,1332.9548,N,07959.9708,E,1,04,4.7,26.8,M,-86.9,M,,0000*4B

$GPGSA,A,3,06,30,02,13,,,,,,,,,6.8,4.7,4.9*37

$GPRMC,153053.000,A,1332.9548,N,07959.9708,E,0.00,22.63,010317,,,A*59

$GPGGA,153054.000,1332.9548,N,07959.9708,E,1,04,4.7,26.8,M,-86.9,M,,0000*4C

$GPGSA,A,3,06,30,02,13,,,,,,,,,6.8,4.7,4.9*37

$GPGSV,3,1,12,06,80,205,31,30,40,159,35,02,38,217,39,13,19,242,24*70

$GPGSV,3,2,12,07,03,151,34,24,08,319,19,19,44,339,,04,42,218,*78

$GPGSV,3,3,12,28,42,063,,17,37,006,,03,05,062,,57,04,222,*71

$GPRMC,153054.000,A,1332.9548,N,07959.9708,E,0.00,22.63,010317,,,A*5E

$GPGGA,153055.000,1332.9548,N,07959.9708,E,1,04,4.7,26.8,M,-86.9,M,,0000*4D

$GPGSA,A,3,06,30,02,13,,,,,,,,,6.8,4.7,4.9*37

$GPRMC,153055.000,A,1332.9548,N,07959.9708,E,0.00,22.63,010317,,,A*5F

$GPGGA,153056.000,1332.9548,N,07959.9708,E,1,04,4.7,26.8,M,-86.9,M,,0000*4E

$GPGSA,A,3,06,30,02,13,,,,,,,,,6.8,4.7,4.9*37

$GPRMC,153056.000,A,1332.9548,N,07959.9708,E,0.00,22.63,010317,,,A*5C

$GPGGA,153057.000,1332.9548,N,07959.9708,E,1,04,4.7,26.8,M,-86.9,M,,0000*4F

$GPGSA,A,3,06,30,02,13,,,,,,,,,6.8,4.7,4.9*37

$GPRMC,153057.000,A,1332.9548,N,07959.9708,E,0.00,22.63,010317,,,A*5D

$GPGGA,153058.000,1332.9548,N,07959.9708,E,1,04,4.7,26.8,M,-86.9,M,,0000*40

$GPGSA,A,3,06,30,02,13,,,,,,,,,6.8,4.7,4.9*37

$GPRMC,153058.000,A,1332.9548,N,07959.9708,E,0.00,22.63,010317,,,A*52

$GPGGA,153059.000,1332.9548,N,07959.9708,E,1,04,4.7,26.8,M,-86.9,M,,0000*41

$GPGSA,A,3,06,30,02,13,,,,,,,,,6.8,4.7,4.9*37

$GPGSV,3,1,12,06,80,205,31,30,40,159,35,02,38,217,39,13,19,242,24*70

$GPGSV,3,2,12,07,03,151,34,24,08,319,19,19,44,339,,04,42,218,*78

$GPGSV,3,3,12,28,42,063,,17,37,006,,03,05,062,,57,04,222,*71

$GPRMC,153059.000,A,1332.9548,N,07959.9708,E,0.00,22.63,010317,,,A*53

$GPGGA,153100.000,1332.9548,N,07959.9708,E,1,04,4.7,26.8,M,-86.9,M,,0000*4C

$GPGSA,A,3,06,30,02,13,,,,,,,,,6.8,4.7,4.9*37

$GPRMC,153100.000,A,1332.9548,N,07959.9708,E,0.00,22.63,010317,,,A*5E

$GPGGA,153101.000,1332.9548,N,07959.9708,E,1,04,4.7,26.8,M,-86.9,M,,0000*4D

$GPGSA,A,3,06,30,02,13,,,,,,,,,6.8,4.7,4.9*37

$GPRMC,153101.000,A,1332.9548,N,07959.9708,E,0.00,22.63,010317,,,A*5F

$GPGGA,153102.000,1332.9548,N,07959.9708,E,1,04,4.7,26.8,M,-86.9,M,,0000*4E

$GPGSA,A,3,06,30,02,13,,,,,,,,,6.8,4.7,4.9*37

$GPRMC,153102.000,A,1332.9548,N,07959.9708,E,0.00,22.63,010317,,,A*5C

$GPGGA,153103.000,1332.9548,N,07959.9708,E,1,04,4.7,26.8,M,-86.9,M,,0000*4F

$GPGSA,A,3,06,30,02,13,,,,,,,,,6.8,4.7,4.9*37

$GPRMC,153103.000,A,1332.9548,N,07959.9708,E,0.00,22.63,010317,,,A*5D

$GPGGA,153104.000,1332.9548,N,07959.9708,E,1,04,4.7,26.8,M,-86.9,M,,0000*48

$GPGSA,A,3,06,30,02,13,,,,,,,,,6.8,4.7,4.9*37

$GPGSV,3,1,12,06,80,205,31,30,40,159,34,02,38,217,39,13,19,242,23*76

$GPGSV,3,2,12,07,03,151,34,19,44,339,21,24,08,319,19,04,42,218,*7B

$GPGSV,3,3,12,28,42,063,,17,37,006,,03,05,062,,57,04,222,*71

$GPRMC,153104.000,A,1332.9548,N,07959.9708,E,0.00,22.63,010317,,,A*5A

$GPGGA,153105.000,1332.9548,N,07959.9708,E,1,04,4.7,26.8,M,-86.9,M,,0000*49

$GPGSA,A,3,06,30,02,13,,,,,,,,,6.8,4.7,4.9*37

$GPRMC,153105.000,A,1332.9548,N,07959.9708,E,0.00,22.63,010317,,,A*5B

$GPGGA,153106.000,1332.9548,N,07959.9708,E,1,04,4.7,26.8,M,-86.9,M,,0000*4A

$GPGSA,A,3,06,30,02,13,,,,,,,,,6.8,4.7,4.9*37

$GPRMC,153106.000,A,1332.9548,N,07959.9708,E,0.00,22.63,010317,,,A*58

$GPGGA,153107.000,1332.9548,N,07959.9708,E,1,04,4.7,26.8,M,-86.9,M,,0000*4B

$GPGSA,A,3,06,30,02,13,,,,,,,,,6.8,4.7,4.9*37

$GPRMC,153107.000,A,1332.9548,N,07959.9708,E,0.00,22.63,010317,,,A*59

$GPGGA,153108.000,1332.9548,N,07959.9708,E,1,04,4.7,26.8,M,-86.9,M,,0000*44

$GPGSA,A,3,06,30,02,13,,,,,,,,,6.8,4.7,4.9*37

$GPRMC,153108.000,A,1332.9548,N,07959.9708,E,0.00,22.63,010317,,,A*56

$GPGGA,153109.000,1332.9548,N,07959.9708,E,1,04,4.7,26.8,M,-86.9,M,,0000*45

$GPGSA,A,3,06,30,02,13,,,,,,,,,6.8,4.7,4.9*37

$GPGSV,3,1,12,06,80,205,30,30,40,160,29,02,38,217,39,13,19,242,20*72

$GPGSV,3,2,12,07,03,151,34,19,44,339,21,04,42,217,,28,42,063,*70

$GPGSV,3,3,12,17,37,006,,24,08,319,,03,04,062,,57,04,221,*7F

$GPRMC,153109.000,A,1332.9548,N,07959.9708,E,0.00,22.63,010317,,,A*57

$GPGGA,153110.000,1332.9548,N,07959.9708,E,1,04,4.7,26.8,M,-86.9,M,,0000*4D

$GPGSA,A,3,06,30,02,13,,,,,,,,,6.8,4.7,4.9*37

$GPRMC,153110.000,A,1332.9548,N,07959.9708,E,0.00,22.63,010317,,,A*5F

$GPGGA,153111.000,1332.9548,N,07959.9708,E,1,04,4.7,26.8,M,-86.9,M,,0000*4C

$GPGSA,A,3,06,30,02,13,,,,,,,,,6.8,4.7,4.9*37

$GPRMC,153111.000,A,1332.9548,N,07959.9708,E,0.00,22.63,010317,,,A*5E

$GPGGA,153112.000,1332.9548,N,07959.9708,E,1,04,4.7,26.8,M,-86.9,M,,0000*4F

$GPGSA,A,3,06,30,02,13,,,,,,,,,6.8,4.7,4.9*37

$GPRMC,153112.000,A,1332.9548,N,07959.9708,E,0.00,22.63,010317,,,A*5D

$GPGGA,153113.000,1332.9548,N,07959.9708,E,1,04,4.7,26.8,M,-86.9,M,,0000*4E

$GPGSA,A,3,06,30,02,13,,,,,,,,,6.8,4.7,4.9*37

$GPRMC,153113.000,A,1332.9548,N,07959.9708,E,0.00,22.63,010317,,,A*5C

$GPGGA,153114.000,1332.9548,N,07959.9708,E,1,04,4.7,26.8,M,-86.9,M,,0000*49

$GPGSA,A,3,06,30,02,13,,,,,,,,,6.8,4.7,4.9*37

$GPGSV,3,1,12,06,80,206,29,30,40,160,30,02,38,217,38,13,19,242,19*7A

$GPGSV,3,2,12,07,03,151,34,19,44,339,14,04,42,217,,28,42,063,*76

$GPGSV,3,3,12,17,37,006,,24,08,319,,03,04,062,,57,04,221,*7F

$GPRMC,153114.000,A,1332.9548,N,07959.9708,E,0.00,22.63,010317,,,A*5B

$GPGGA,153115.000,1332.9548,N,07959.9708,E,1,04,4.7,26.8,M,-86.9,M,,0000*48

$GPGSA,A,3,06,30,02,13,,,,,,,,,6.8,4.7,4.9*37

$GPRMC,153115.000,A,1332.9548,N,07959.9708,E,0.00,22.63,010317,,,A*5A

$GPGGA,153116.000,1332.9548,N,07959.9708,E,1,04,4.7,26.8,M,-86.9,M,,0000*4B

$GPGSA,A,3,06,30,02,13,,,,,,,,,6.8,4.7,4.9*37

$GPRMC,153116.000,A,1332.9548,N,07959.9708,E,0.00,22.63,010317,,,A*59

$GPGGA,153117.000,1332.9548,N,07959.9709,E,1,04,4.7,26.8,M,-86.9,M,,0000*4B

$GPGSA,A,3,06,30,02,13,,,,,,,,,6.8,4.7,4.9*37

$GPRMC,153117.000,A,1332.9548,N,07959.9709,E,0.00,22.63,010317,,,A*59

$GPGGA,153118.000,1332.9548,N,07959.9709,E,1,04,4.7,26.8,M,-86.9,M,,0000*44

$GPGSA,A,3,06,30,02,13,,,,,,,,,6.8,4.7,4.9*37

$GPRMC,153118.000,A,1332.9548,N,07959.9709,E,0.00,22.63,010317,,,A*56

$GPGGA,153119.000,1332.9548,N,07959.9709,E,1,04,4.7,26.8,M,-86.9,M,,0000*45

$GPGSA,A,3,06,30,02,13,,,,,,,,,6.8,4.7,4.9*37

$GPGSV,3,1,12,06,80,206,29,30,40,160,31,02,38,217,38,13,19,242,20*71

$GPGSV,3,2,12,07,03,151,34,19,44,339,11,04,42,217,,28,42,063,*73

$GPGSV,3,3,12,17,37,006,,24,08,319,,03,04,062,,57,04,221,*7F

$GPRMC,153119.000,A,1332.9548,N,07959.9709,E,0.00,22.63,010317,,,A*57

$GPGGA,153120.000,1332.9548,N,07959.9709,E,1,04,4.7,26.8,M,-86.9,M,,0000*4F

$GPGSA,A,3,06,30,02,13,,,,,,,,,6.8,4.7,4.9*37

$GPRMC,153120.000,A,1332.9548,N,07959.9709,E,0.00,22.63,010317,,,A*5D

$GPGGA,153121.000,1332.9548,N,07959.9709,E,1,04,4.7,26.8,M,-86.9,M,,0000*4E

$GPGSA,A,3,06,30,02,13,,,,,,,,,6.8,4.7,4.9*37

$GPRMC,153121.000,A,1332.9548,N,07959.9709,E,0.00,22.63,010317,,,A*5C

$GPGGA,153122.000,1332.9548,N,07959.9709,E,1,04,4.7,26.8,M,-86.9,M,,0000*4D

$GPGSA,A,3,06,30,02,13,,,,,,,,,6.8,4.7,4.9*37

$GPRMC,153122.000,A,1332.9548,N,07959.9709,E,0.00,22.63,010317,,,A*5F

$GPGGA,153123.000,1332.9548,N,07959.9709,E,1,04,4.7,26.8,M,-86.9,M,,0000*4C

$GPGSA,A,3,06,30,02,13,,,,,,,,,6.8,4.7,4.9*37

$GPRMC,153123.000,A,1332.9548,N,07959.9709,E,0.00,22.63,010317,,,A*5E

$GPGGA,153124.000,1332.9548,N,07959.9709,E,1,04,4.7,26.8,M,-86.9,M,,0000*4B

$GPGSA,A,3,06,30,02,13,,,,,,,,,6.8,4.7,4.9*37

$GPGSV,3,1,12,06,80,206,30,30,40,160,31,02,38,217,39,13,19,242,18*73

$GPGSV,3,2,12,07,03,151,34,15,02,269,13,19,44,339,11,04,42,217,*73

$GPGSV,3,3,12,28,42,063,,17,37,006,,24,08,319,,03,04,062,*71

$GPRMC,153124.000,A,1332.9548,N,07959.9709,E,0.00,22.63,010317,,,A*59

$GPGGA,153125.000,1332.9548,N,07959.9709,E,1,04,4.7,26.8,M,-86.9,M,,0000*4A

$GPGSA,A,3,06,30,02,13,,,,,,,,,6.8,4.7,4.9*37

$GPRMC,153125.000,A,1332.9548,N,07959.9709,E,0.00,22.63,010317,,,A*58

$GPGGA,153126.000,1332.9548,N,07959.9709,E,1,04,4.7,26.8,M,-86.9,M,,0000*49

$GPGSA,A,3,06,30,02,13,,,,,,,,,6.8,4.7,4.9*37

$GPRMC,153126.000,A,1332.9548,N,07959.9709,E,0.00,22.63,010317,,,A*5B

$GPGGA,153127.000,1332.9548,N,07959.9709,E,1,04,4.7,26.8,M,-86.9,M,,0000*48

$GPGSA,A,3,06,30,02,13,,,,,,,,,6.8,4.7,4.9*37

$GPRMC,153127.000,A,1332.9548,N,07959.9709,E,0.00,22.63,010317,,,A*5A

$GPGGA,153128.000,1332.9548,N,07959.9709,E,1,04,4.7,26.8,M,-86.9,M,,0000*47

$GPGSA,A,3,06,30,02,13,,,,,,,,,6.8,4.7,4.9*37

$GPRMC,153128.000,A,1332.9548,N,07959.9709,E,0.00,22.63,010317,,,A*55

$GPGGA,153129.000,1332.9548,N,07959.9709,E,1,04,4.7,26.8,M,-86.9,M,,0000*46

$GPGSA,A,3,06,30,02,13,,,,,,,,,6.8,4.7,4.9*37

$GPGSV,3,1,12,06,80,206,30,30,40,160,32,02,38,217,39,13,19,242,18*70

$GPGSV,3,2,12,07,03,151,34,15,02,269,14,19,44,339,12,04,42,217,*77

$GPGSV,3,3,12,28,42,063,,17,37,006,,24,08,319,,03,04,062,*71

$GPRMC,153129.000,A,1332.9548,N,07959.9709,E,0.00,22.63,010317,,,A*54

$GPGGA,153130.000,1332.9548,N,07959.9709,E,1,04,4.7,26.8,M,-86.9,M,,0000*4E

$GPGSA,A,3,06,30,02,13,,,,,,,,,6.8,4.7,4.9*37

$GPRMC,153130.000,A,1332.9548,N,07959.9709,E,0.00,22.63,010317,,,A*5C

$GPGGA,153131.000,1332.9548,N,07959.9709,E,1,04,4.7,26.8,M,-86.9,M,,0000*4F

$GPGSA,A,3,06,30,02,13,,,,,,,,,6.8,4.7,4.9*37

$GPRMC,153131.000,A,1332.9548,N,07959.9709,E,0.00,22.63,010317,,,A*5D

$GPGGA,153132.000,1332.9548,N,07959.9709,E,1,04,4.7,26.8,M,-86.9,M,,0000*4C

$GPGSA,A,3,06,30,02,13,,,,,,,,,6.8,4.7,4.9*37

$GPRMC,153132.000,A,1332.9548,N,07959.9709,E,0.00,22.63,010317,,,A*5E

$GPGGA,153133.000,1332.9548,N,07959.9709,E,1,04,4.7,26.8,M,-86.9,M,,0000*4D

$GPGSA,A,3,06,30,02,13,,,,,,,,,6.8,4.7,4.9*37

$GPRMC,153133.000,A,1332.9548,N,07959.9709,E,0.00,22.63,010317,,,A*5F

$GPGGA,153134.000,1332.9548,N,07959.9709,E,1,04,4.7,26.8,M,-86.9,M,,0000*4A

$GPGSA,A,3,06,30,02,13,,,,,,,,,6.8,4.7,4.9*37

$GPGSV,3,1,12,06,80,206,30,30,40,160,32,02,38,217,39,13,19,242,18*70

$GPGSV,3,2,12,07,03,151,34,15,02,269,23,19,44,339,13,04,42,217,*72

$GPGSV,3,3,12,28,42,063,,17,37,006,,24,08,319,,03,04,062,*71

$GPRMC,153134.000,A,1332.9548,N,07959.9709,E,0.00,22.63,010317,,,A*58

$GPGGA,153135.000,1332.9549,N,07959.9709,E,1,04,4.7,26.8,M,-86.9,M,,0000*4A

$GPGSA,A,3,06,30,02,13,,,,,,,,,6.8,4.7,4.9*37

$GPRMC,153135.000,A,1332.9549,N,07959.9709,E,0.00,22.63,010317,,,A*58

$GPGGA,153136.000,1332.9549,N,07959.9709,E,1,04,4.7,26.8,M,-86.9,M,,0000*49

$GPGSA,A,3,06,30,02,13,,,,,,,,,6.8,4.7,4.9*37

$GPRMC,153136.000,A,1332.9549,N,07959.9709,E,0.00,22.63,010317,,,A*5B

$GPGGA,153137.000,1332.9549,N,07959.9709,E,1,04,4.7,26.8,M,-86.9,M,,0000*48

$GPGSA,A,3,06,30,02,13,,,,,,,,,6.8,4.7,4.9*37

$GPRMC,153137.000,A,1332.9549,N,07959.9709,E,0.00,22.63,010317,,,A*5A

$GPGGA,153138.000,1332.9549,N,07959.9709,E,1,04,4.7,26.8,M,-86.9,M,,0000*47

$GPGSA,A,3,06,30,02,13,,,,,,,,,6.8,4.7,4.9*37

$GPRMC,153138.000,A,1332.9549,N,07959.9709,E,0.00,22.63,010317,,,A*55

$GPGGA,153139.000,1332.9549,N,07959.9709,E,1,04,4.7,26.8,M,-86.9,M,,0000*46

$GPGSA,A,3,06,30,02,13,,,,,,,,,6.8,4.7,4.9*37

$GPGSV,3,1,12,06,80,206,30,30,40,160,33,02,38,217,40,13,19,242,20*74

$GPGSV,3,2,12,07,03,151,34,15,02,269,09,19,44,339,12,04,42,217,*7B

$GPGSV,3,3,12,28,42,063,,17,37,006,,24,08,319,,03,04,062,*71

$GPRMC,153139.000,A,1332.9549,N,07959.9709,E,0.00,22.63,010317,,,A*54

$GPGGA,153140.000,1332.9549,N,07959.9709,E,1,04,4.7,26.8,M,-86.9,M,,0000*48

$GPGSA,A,3,06,30,02,13,,,,,,,,,6.8,4.7,4.9*37

$GPRMC,153140.000,A,1332.9549,N,07959.9709,E,0.00,22.63,010317,,,A*5A

$GPGGA,153141.000,1332.9549,N,07959.9709,E,1,04,4.7,26.8,M,-86.9,M,,0000*49

$GPGSA,A,3,06,30,02,13,,,,,,,,,6.8,4.7,4.9*37

$GPRMC,153141.000,A,1332.9549,N,07959.9709,E,0.00,22.63,010317,,,A*5B

$GPGGA,153142.000,1332.9549,N,07959.9709,E,1,04,4.7,26.8,M,-86.9,M,,0000*4A

$GPGSA,A,3,06,30,02,13,,,,,,,,,6.8,4.7,4.9*37

$GPRMC,153142.000,A,1332.9549,N,07959.9709,E,0.00,22.63,010317,,,A*58

$GPGGA,153143.000,1332.9549,N,07959.9709,E,1,04,4.7,26.8,M,-86.9,M,,0000*4B

$GPGSA,A,3,06,30,02,13,,,,,,,,,6.8,4.7,4.9*37

$GPRMC,153143.000,A,1332.9549,N,07959.9709,E,0.00,22.63,010317,,,A*59

$GPGGA,153144.000,1332.9549,N,07959.9709,E,1,04,4.7,26.8,M,-86.9,M,,0000*4C

$GPGSA,A,3,06,30,02,13,,,,,,,,,6.8,4.7,4.9*37

$GPGSV,3,1,12,06,80,206,31,30,40,160,33,02,38,217,40,13,19,242,27*72

$GPGSV,3,2,12,07,03,151,35,15,02,269,13,24,08,319,17,19,44,339,*77

$GPGSV,3,3,12,04,42,217,,28,42,063,,17,37,006,,03,04,062,*72

$GPRMC,153144.000,A,1332.9549,N,07959.9709,E,0.00,22.63,010317,,,A*5E

$GPGGA,153145.000,1332.9549,N,07959.9709,E,1,04,4.7,26.8,M,-86.9,M,,0000*4D

$GPGSA,A,3,06,30,02,13,,,,,,,,,6.8,4.7,4.9*37

$GPRMC,153145.000,A,1332.9549,N,07959.9709,E,0.00,22.63,010317,,,A*5F

$GPGGA,153146.000,1332.9549,N,07959.9709,E,1,04,4.7,26.8,M,-86.9,M,,0000*4E

$GPGSA,A,3,06,30,02,13,,,,,,,,,6.8,4.7,4.9*37

$GPRMC,153146.000,A,1332.9549,N,07959.9709,E,0.00,22.63,010317,,,A*5C

$GPGGA,153147.000,1332.9549,N,07959.9709,E,1,04,4.7,26.8,M,-86.9,M,,0000*4F

$GPGSA,A,3,06,30,02,13,,,,,,,,,6.8,4.7,4.9*37

$GPRMC,153147.000,A,1332.9549,N,07959.9709,E,0.00,22.63,010317,,,A*5D

$GPGGA,153148.000,1332.9549,N,07959.9709,E,1,04,4.7,26.8,M,-86.9,M,,0000*40

$GPGSA,A,3,06,30,02,13,,,,,,,,,6.8,4.7,4.9*37

$GPRMC,153148.000,A,1332.9549,N,07959.9709,E,0.00,22.63,010317,,,A*52

$GPGGA,153149.000,1332.9549,N,07959.9709,E,1,04,4.7,26.8,M,-86.9,M,,0000*41

$GPGSA,A,3,06,30,02,13,,,,,,,,,6.8,4.7,4.9*37

$GPGSV,3,1,12,06,80,206,32,30,40,160,35,02,38,217,42,13,19,242,21*73

$GPGSV,3,2,12,07,03,151,36,15,02,269,20,24,08,319,17,19,44,339,*74

$GPGSV,3,3,12,04,42,217,,28,42,063,,17,37,006,,03,04,062,*72

$GPRMC,153149.000,A,1332.9549,N,07959.9709,E,0.00,22.63,010317,,,A*53

$GPGGA,153150.000,1332.9549,N,07959.9709,E,1,04,4.7,26.8,M,-86.9,M,,0000*49

$GPGSA,A,3,06,30,02,13,,,,,,,,,6.8,4.7,4.9*37

$GPRMC,153150.000,A,1332.9549,N,07959.9709,E,0.00,22.63,010317,,,A*5B

$GPGGA,153151.000,1332.9549,N,07959.9709,E,1,04,4.7,26.8,M,-86.9,M,,0000*48

$GPGSA,A,3,06,30,02,13,,,,,,,,,6.8,4.7,4.9*37

$GPRMC,153151.000,A,1332.9549,N,07959.9709,E,0.00,22.63,010317,,,A*5A

$GPGGA,153152.000,1332.9549,N,07959.9709,E,1,04,4.7,26.8,M,-86.9,M,,0000*4B

$GPGSA,A,3,06,30,02,13,,,,,,,,,6.8,4.7,4.9*37

$GPRMC,153152.000,A,1332.9549,N,07959.9709,E,0.00,22.63,010317,,,A*59

$GPGGA,153153.000,1332.9549,N,07959.9709,E,1,04,4.7,26.8,M,-86.9,M,,0000*4A

$GPGSA,A,3,06,30,02,13,,,,,,,,,6.8,4.7,4.9*37

$GPRMC,153153.000,A,1332.9549,N,07959.9709,E,0.00,22.63,010317,,,A*58

$GPGGA,153154.000,1332.9549,N,07959.9709,E,1,04,4.7,26.8,M,-86.9,M,,0000*4D

$GPGSA,A,3,06,30,02,13,,,,,,,,,6.8,4.7,4.9*37

$GPGSV,3,1,12,06,80,206,33,30,40,160,36,02,38,217,42,13,19,242,26*76

$GPGSV,3,2,12,07,03,151,36,15,02,269,22,24,08,319,17,19,44,339,*76

$GPGSV,3,3,12,04,42,217,,28,42,063,,17,37,006,,03,04,062,*72

$GPRMC,153154.000,A,1332.9549,N,07959.9709,E,0.00,22.63,010317,,,A*5F

$GPGGA,153155.000,1332.9549,N,07959.9709,E,1,04,4.7,26.8,M,-86.9,M,,0000*4C

$GPGSA,A,3,06,30,02,13,,,,,,,,,6.8,4.7,4.9*37

$GPRMC,153155.000,A,1332.9549,N,07959.9709,E,0.00,22.63,010317,,,A*5E

$GPGGA,153156.000,1332.9549,N,07959.9709,E,1,04,4.7,26.8,M,-86.9,M,,0000*4F

$GPGSA,A,3,06,30,02,13,,,,,,,,,6.8,4.7,4.9*37

$GPRMC,153156.000,A,1332.9549,N,07959.9709,E,0.00,22.63,010317,,,A*5D

$GPGGA,153157.000,1332.9549,N,07959.9709,E,1,04,4.7,26.8,M,-86.9,M,,0000*4E

$GPGSA,A,3,06,30,02,13,,,,,,,,,6.8,4.7,4.9*37

$GPRMC,153157.000,A,1332.9549,N,07959.9709,E,0.00,22.63,010317,,,A*5C

$GPGGA,153158.000,1332.9549,N,07959.9709,E,1,04,4.7,26.8,M,-86.9,M,,0000*41

$GPGSA,A,3,06,30,02,13,,,,,,,,,6.8,4.7,4.9*37

$GPRMC,153158.000,A,1332.9549,N,07959.9709,E,0.00,22.63,010317,,,A*53

$GPGGA,153159.000,1332.9549,N,07959.9709,E,1,04,4.7,26.8,M,-86.9,M,,0000*40

$GPGSA,A,3,06,30,02,13,,,,,,,,,6.8,4.7,4.9*37

$GPGSV,3,1,12,06,80,206,33,30,40,160,36,02,38,217,42,13,19,242,26*76

$GPGSV,3,2,12,07,03,151,35,15,02,269,21,24,08,319,18,19,44,339,*79

$GPGSV,3,3,12,04,42,217,,28,42,063,,17,37,006,,03,04,062,*72

$GPRMC,153159.000,A,1332.9549,N,07959.9709,E,0.00,22.63,010317,,,A*52

$GPGGA,153200.000,1332.9549,N,07959.9709,E,1,04,4.7,26.8,M,-86.9,M,,0000*4F

$GPGSA,A,3,06,30,02,13,,,,,,,,,6.8,4.7,4.9*37

$GPRMC,153200.000,A,1332.9549,N,07959.9709,E,0.00,22.63,010317,,,A*5D

$GPGGA,153201.000,1332.9549,N,07959.9709,E,1,04,4.7,26.8,M,-86.9,M,,0000*4E

$GPGSA,A,3,06,30,02,13,,,,,,,,,6.8,4.7,4.9*37

$GPRMC,153201.000,A,1332.9549,N,07959.9709,E,0.00,22.63,010317,,,A*5C

$GPGGA,153202.000,1332.9549,N,07959.9709,E,1,04,4.7,26.8,M,-86.9,M,,0000*4D

$GPGSA,A,3,06,30,02,13,,,,,,,,,6.8,4.7,4.9*37

$GPRMC,153202.000,A,1332.9549,N,07959.9709,E,0.00,22.63,010317,,,A*5F

$GPGGA,153203.000,1332.9549,N,07959.9709,E,1,04,4.7,26.8,M,-86.9,M,,0000*4C

$GPGSA,A,3,06,30,02,13,,,,,,,,,6.8,4.7,4.9*37

$GPRMC,153203.000,A,1332.9549,N,07959.9709,E,0.00,22.63,010317,,,A*5E

$GPGGA,153204.000,1332.9549,N,07959.9709,E,1,04,4.7,26.8,M,-86.9,M,,0000*4B

$GPGSA,A,3,06,30,02,13,,,,,,,,,6.8,4.7,4.9*37

$GPGSV,3,1,12,06,80,206,32,30,40,160,35,02,38,217,42,13,19,242,26*74

$GPGSV,3,2,12,07,03,151,35,15,02,269,17,24,08,319,18,28,42,063,13*76

$GPGSV,3,3,12,19,44,339,,04,42,217,,17,37,006,,03,04,062,*7A

$GPRMC,153204.000,A,1332.9549,N,07959.9709,E,0.00,22.63,010317,,,A*59

$GPGGA,153205.000,1332.9549,N,07959.9709,E,1,04,4.7,26.8,M,-86.9,M,,0000*4A

$GPGSA,A,3,06,30,02,13,,,,,,,,,6.8,4.7,4.9*37

$GPRMC,153205.000,A,1332.9549,N,07959.9709,E,0.00,22.63,010317,,,A*58

$GPGGA,153206.000,1332.9549,N,07959.9709,E,1,04,4.7,26.8,M,-86.9,M,,0000*49

$GPGSA,A,3,06,30,02,13,,,,,,,,,6.8,4.7,4.9*37

$GPRMC,153206.000,A,1332.9549,N,07959.9709,E,0.00,22.63,010317,,,A*5B

$GPGGA,153207.000,1332.9549,N,07959.9709,E,1,04,4.7,26.8,M,-86.9,M,,0000*48

$GPGSA,A,3,06,30,02,13,,,,,,,,,6.8,4.7,4.9*37

$GPRMC,153207.000,A,1332.9549,N,07959.9709,E,0.00,22.63,010317,,,A*5A

$GPGGA,153208.000,1332.9549,N,07959.9709,E,1,04,4.7,26.8,M,-86.9,M,,0000*47

