$GPGGA,180106.000,1333.0200,N,08000.0892,E,1,06,2.0,25.6,M,-86.9,M,,0000*46

$GPGSA,A,3,26,16,31,57,10,27,,,,,,,2.8,2.0,2.0*3F

$GPRMC,180106.000,A,1333.0200,N,08000.0892,E,0.38,320.08,210817,,,A*64

$GPGGA,180107.000,1333.0199,N,08000.0893,E,1,06,2.0,25.7,M,-86.9,M,,0000*44

$GPGSA,A,3,26,16,31,57,10,27,,,,,,,2.8,2.0,2.0*3F

$GPGSV,3,1,12,26,62,117,19,16,45,167,30,31,38,018,09,57,28,127,25*70

$GPGSV,3,2,12,10,23,137,16,27,08,175,20,08,00,206,05,40,57,243,*7F

$GPGSV,3,3,12,22,45,325,,14,30,046,,01,29,270,,32,23,067,*75

$GPRMC,180107.000,A,1333.0199,N,08000.0893,E,0.68,320.08,210817,,,A*62

$GPGGA,180108.000,1333.0199,N,08000.0896,E,1,05,6.2,25.9,M,-86.9,M,,0000*45

$GPGSA,A,3,26,16,57,10,27,,,,,,,,7.8,6.2,4.7*3F

$GPRMC,180108.000,A,1333.0199,N,08000.0896,E,0.64,320.08,210817,,,A*64

$GPGGA,180109.000,1333.0199,N,08000.0896,E,1,05,6.2,26.0,M,-86.9,M,,0000*4E

$GPGSA,A,3,26,16,57,10,27,,,,,,,,7.8,6.2,4.7*3F

$GPRMC,180109.000,A,1333.0199,N,08000.0896,E,0.51,320.08,210817,,,A*63

$GPGGA,180110.000,1333.0198,N,08000.0897,E,1,05,6.2,26.1,M,-86.9,M,,0000*47

$GPGSA,A,3,26,16,57,10,27,,,,,,,,7.8,6.2,4.7*3F

$GPRMC,180110.000,A,1333.0198,N,08000.0897,E,0.34,320.08,210817,,,A*68

$GPGGA,180111.000,1333.0196,N,08000.0899,E,1,04,6.9,26.0,M,-86.9,M,,0000*4D

$GPGSA,A,3,26,16,57,27,,,,,,,,,8.4,6.9,4.8*39

$GPRMC,180111.000,A,1333.0196,N,08000.0899,E,0.38,320.08,210817,,,A*65

$GPGGA,180112.000,1333.0192,N,08000.0903,E,1,04,6.9,26.1,M,-86.9,M,,0000*49

$GPGSA,A,3,26,16,57,27,,,,,,,,,8.4,6.9,4.8*39

$GPGSV,3,1,12,26,62,117,20,16,45,167,30,57,28,127,25,27,08,175,21*7E

$GPGSV,3,2,12,01,29,270,15,08,00,206,06,10,23,137,04,31,38,018,07*7C

$GPGSV,3,3,12,40,57,243,,22,45,325,,14,30,046,,32,23,067,*79

$GPRMC,180112.000,A,1333.0192,N,08000.0903,E,0.65,320.08,210817,,,A*68

$GPGGA,180113.000,1333.0191,N,08000.0906,E,1,04,6.9,26.0,M,-86.9,M,,0000*4F

$GPGSA,A,3,26,16,57,27,,,,,,,,,8.4,6.9,4.8*39

$GPRMC,180113.000,A,1333.0191,N,08000.0906,E,0.55,320.08,210817,,,A*6C

$GPGGA,180114.000,1333.0189,N,08000.0907,E,1,04,6.9,25.9,M,-86.9,M,,0000*4A

$GPGSA,A,3,26,16,57,27,,,,,,,,,8.4,6.9,4.8*39

$GPRMC,180114.000,A,1333.0189,N,08000.0907,E,0.48,320.08,210817,,,A*6F

$GPGGA,180115.000,1333.0188,N,08000.0908,E,1,04,6.9,25.9,M,-86.9,M,,0000*45

$GPGSA,A,3,26,16,57,27,,,,,,,,,8.4,6.9,4.8*39

$GPRMC,180115.000,A,1333.0188,N,08000.0908,E,0.34,320.08,210817,,,A*6B

$GPGGA,180116.000,1333.0187,N,08000.0907,E,1,04,6.9,25.9,M,-86.9,M,,0000*46

$GPGSA,A,3,26,16,57,27,,,,,,,,,8.4,6.9,4.8*39

$GPRMC,180116.000,A,1333.0187,N,08000.0907,E,0.23,320.08,210817,,,A*6E

$GPGGA,180117.000,1333.0189,N,08000.0903,E,1,04,6.9,26.1,M,-86.9,M,,0000*46

$GPGSA,A,3,26,16,57,27,,,,,,,,,8.4,6.9,4.8*39

$GPGSV,3,1,12,26,62,117,21,16,45,167,30,57,28,127,25,27,08,175,20*7E

$GPGSV,3,2,12,01,29,270,16,08,00,206,09,10,23,137,08,31,38,018,07*7C

$GPGSV,3,3,12,40,57,243,,22,45,325,,14,30,046,,32,23,067,*79

$GPRMC,180117.000,A,1333.0189,N,08000.0903,E,0.26,320.08,210817,,,A*60

$GPGGA,180118.000,1333.0190,N,08000.0899,E,1,05,6.2,26.2,M,-86.9,M,,0000*4A

$GPGSA,A,3,26,16,57,10,27,,,,,,,,7.8,6.2,4.7*3F

$GPRMC,180118.000,A,1333.0190,N,08000.0899,E,0.56,320.08,210817,,,A*62

$GPGGA,180119.000,1333.0189,N,08000.0901,E,1,05,6.2,26.3,M,-86.9,M,,0000*42

$GPGSA,A,3,26,16,57,10,27,,,,,,,,7.8,6.2,4.7*3F

$GPRMC,180119.000,A,1333.0189,N,08000.0901,E,0.05,320.08,210817,,,A*6D

$GPGGA,180120.000,1333.0190,N,08000.0899,E,1,05,6.2,26.5,M,-86.9,M,,0000*46

$GPGSA,A,3,26,16,57,10,27,,,,,,,,7.8,6.2,4.7*3F

$GPRMC,180120.000,A,1333.0190,N,08000.0899,E,0.33,320.08,210817,,,A*6A

$GPGGA,180121.000,1333.0189,N,08000.0900,E,1,05,6.2,26.5,M,-86.9,M,,0000*4E

$GPGSA,A,3,26,16,57,10,27,,,,,,,,7.8,6.2,4.7*3F

$GPRMC,180121.000,A,1333.0189,N,08000.0900,E,0.03,320.08,210817,,,A*61

$GPGGA,180122.000,1333.0191,N,08000.0902,E,1,05,6.2,26.6,M,-86.9,M,,0000*45

$GPGSA,A,3,26,16,57,10,27,,,,,,,,7.8,6.2,4.7*3F

$GPGSV,3,1,12,26,62,117,21,16,45,167,29,57,28,127,26,10,23,137,14*79

$GPGSV,3,2,12,27,08,175,20,08,00,206,13,31,38,018,05,40,57,243,*7F

$GPGSV,3,3,12,22,45,325,,14,30,046,,01,29,270,,32,23,067,*75

$GPRMC,180122.000,A,1333.0191,N,08000.0902,E,0.60,320.08,210817,,,A*6C

$GPGGA,180123.000,1333.0188,N,08000.0904,E,1,05,6.2,26.7,M,-86.9,M,,0000*4B

$GPGSA,A,3,26,16,57,10,27,,,,,,,,7.8,6.2,4.7*3F

$GPRMC,180123.000,A,1333.0188,N,08000.0904,E,0.19,320.08,210817,,,A*6D

$GPGGA,180124.000,1333.0183,N,08000.0910,E,1,05,6.2,26.8,M,-86.9,M,,0000*4D

$GPGSA,A,3,26,16,57,10,27,,,,,,,,7.8,6.2,4.7*3F

$GPRMC,180124.000,A,1333.0183,N,08000.0910,E,0.55,320.08,210817,,,A*6C

$GPGGA,180125.000,1333.0183,N,08000.0909,E,1,05,6.2,26.8,M,-86.9,M,,0000*44

$GPGSA,A,3,26,16,57,10,27,,,,,,,,7.8,6.2,4.7*3F

$GPRMC,180125.000,A,1333.0183,N,08000.0909,E,0.02,320.08,210817,,,A*67

$GPGGA,180126.000,1333.0182,N,08000.0910,E,1,05,6.2,26.8,M,-86.9,M,,0000*4E

$GPGSA,A,3,26,16,57,10,27,,,,,,,,7.8,6.2,4.7*3F

$GPRMC,180126.000,A,1333.0182,N,08000.0910,E,0.18,320.08,210817,,,A*66

$GPGGA,180127.000,1333.0184,N,08000.0911,E,1,05,6.2,26.9,M,-86.9,M,,0000*49

$GPGSA,A,3,26,16,57,10,27,,,,,,,,7.8,6.2,4.7*3F

$GPGSV,3,1,12,26,62,117,22,16,45,167,28,57,28,127,26,10,23,137,23*7F

$GPGSV,3,2,12,27,08,175,19,08,00,206,13,31,38,018,04,39,26,263,*7E

$GPGSV,3,3,12,22,45,325,,14,30,046,,01,29,270,,32,23,067,*75

$GPRMC,180127.000,A,1333.0184,N,08000.0911,E,0.71,320.08,210817,,,A*6F

$GPGGA,180128.000,1333.0188,N,08000.0910,E,1,05,6.2,26.9,M,-86.9,M,,0000*4B

$GPGSA,A,3,26,16,57,10,27,,,,,,,,7.8,6.2,4.7*3F

$GPRMC,180128.000,A,1333.0188,N,08000.0910,E,0.90,320.08,210817,,,A*62

$GPGGA,180129.000,1333.0185,N,08000.0912,E,1,05,6.2,27.0,M,-86.9,M,,0000*4D

$GPGSA,A,3,26,16,57,10,27,,,,,,,,7.8,6.2,4.7*3F

$GPRMC,180129.000,A,1333.0185,N,08000.0912,E,0.43,320.08,210817,,,A*62

$GPGGA,180130.000,1333.0182,N,08000.0909,E,1,05,6.2,27.1,M,-86.9,M,,0000*49

$GPGSA,A,3,26,16,57,10,27,,,,,,,,7.8,6.2,4.7*3F

$GPRMC,180130.000,A,1333.0182,N,08000.0909,E,0.40,320.08,210817,,,A*64

$GPGGA,180131.000,1333.0178,N,08000.0910,E,1,05,6.2,27.0,M,-86.9,M,,0000*44

$GPGSA,A,3,26,16,57,10,27,,,,,,,,7.8,6.2,4.7*3F

$GPRMC,180131.000,A,1333.0178,N,08000.0910,E,0.41,320.08,210817,,,A*69

$GPGGA,180132.000,1333.0181,N,08000.0909,E,1,05,6.2,27.1,M,-86.9,M,,0000*48

$GPGSA,A,3,26,16,57,10,27,,,,,,,,7.8,6.2,4.7*3F

$GPGSV,3,1,12,26,62,117,23,16,45,167,28,57,28,127,26,10,23,137,21*7C

$GPGSV,3,2,12,27,08,175,19,08,00,206,13,31,38,018,06,39,26,263,*7C

$GPGSV,3,3,12,22,45,325,,14,30,046,,01,29,270,,32,23,067,*75

$GPRMC,180132.000,A,1333.0181,N,08000.0909,E,0.13,320.08,210817,,,A*63

$GPGGA,180133.000,1333.0182,N,08000.0907,E,1,05,6.2,27.2,M,-86.9,M,,0000*47

$GPGSA,A,3,26,16,57,10,27,,,,,,,,7.8,6.2,4.7*3F

$GPRMC,180133.000,A,1333.0182,N,08000.0907,E,0.20,320.08,210817,,,A*6F

$GPGGA,180134.000,1333.0186,N,08000.0905,E,1,05,6.2,27.3,M,-86.9,M,,0000*47

$GPGSA,A,3,26,16,57,10,27,,,,,,,,7.8,6.2,4.7*3F

$GPRMC,180134.000,A,1333.0186,N,08000.0905,E,0.19,320.08,210817,,,A*64

$GPGGA,180135.000,1333.0194,N,08000.0900,E,1,06,2.0,26.9,M,-86.9,M,,0000*4E

$GPGSA,A,3,26,16,31,57,10,27,,,,,,,2.8,2.0,2.0*3F

$GPRMC,180135.000,A,1333.0194,N,08000.0900,E,0.39,320.08,210817,,,A*61

$GPGGA,180136.000,1333.0203,N,08000.0895,E,1,06,2.0,26.5,M,-86.9,M,,0000*41

$GPGSA,A,3,26,16,31,57,10,27,,,,,,,2.8,2.0,2.0*3F

$GPRMC,180136.000,A,1333.0203,N,08000.0895,E,0.41,320.08,210817,,,A*6D

$GPGGA,180137.000,1333.0209,N,08000.0888,E,1,06,2.0,26.1,M,-86.9,M,,0000*42

$GPGSA,A,3,26,16,31,57,10,27,,,,,,,2.8,2.0,2.0*3F

$GPGSV,3,1,12,26,62,117,23,16,45,167,28,31,38,018,09,57,28,127,27*72

$GPGSV,3,2,12,10,23,137,21,27,08,175,19,08,00,206,05,39,26,263,*7B

$GPGSV,3,3,12,22,45,325,,14,30,046,,01,29,270,,32,23,067,*75

$GPRMC,180137.000,A,1333.0209,N,08000.0888,E,0.43,320.08,210817,,,A*68

$GPGGA,180138.000,1333.0218,N,08000.0883,E,1,06,2.0,25.7,M,-86.9,M,,0000*43

$GPGSA,A,3,26,16,31,57,10,27,,,,,,,2.8,2.0,2.0*3F

$GPRMC,180138.000,A,1333.0218,N,08000.0883,E,0.62,320.08,210817,,,A*6F

$GPGGA,180139.000,1333.0228,N,08000.0875,E,1,06,2.0,25.3,M,-86.9,M,,0000*4C

$GPGSA,A,3,26,16,31,57,10,27,,,,,,,2.8,2.0,2.0*3F

$GPRMC,180139.000,A,1333.0228,N,08000.0875,E,0.70,320.08,210817,,,A*67

$GPGGA,180140.000,1333.0234,N,08000.0867,E,1,06,2.0,24.8,M,-86.9,M,,0000*46

$GPGSA,A,3,26,16,31,57,10,27,,,,,,,2.8,2.0,2.0*3F

$GPRMC,180140.000,A,1333.0234,N,08000.0867,E,0.99,320.08,210817,,,A*60

$GPGGA,180141.000,1333.0240,N,08000.0863,E,1,06,2.0,24.5,M,-86.9,M,,0000*4D

$GPGSA,A,3,26,16,31,57,10,27,,,,,,,2.8,2.0,2.0*3F

$GPRMC,180141.000,A,1333.0240,N,08000.0863,E,0.80,320.08,210817,,,A*6E

$GPGGA,180142.000,1333.0244,N,08000.0863,E,1,06,2.0,24.2,M,-86.9,M,,0000*4D

$GPGSA,A,3,26,16,31,57,10,27,,,,,,,2.8,2.0,2.0*3F

$GPGSV,3,1,12,26,62,117,23,16,45,167,29,31,38,018,09,57,28,127,27*73

$GPGSV,3,2,12,10,23,137,22,27,08,175,18,08,00,206,04,32,23,067,14*75

$GPGSV,3,3,12,39,26,263,,22,45,325,,14,30,046,,01,29,270,*7D

$GPRMC,180142.000,A,1333.0244,N,08000.0863,E,0.72,320.08,210817,,,A*64

$GPGGA,180143.000,1333.0247,N,08000.0864,E,1,07,1.6,24.2,M,-86.9,M,,0000*4C

$GPGSA,A,3,26,16,31,57,10,32,27,,,,,,2.4,1.6,1.8*3C

$GPRMC,180143.000,A,1333.0247,N,08000.0864,E,1.06,320.08,210817,,,A*63

$GPGGA,180144.000,1333.0242,N,08000.0865,E,1,07,1.6,24.2,M,-86.9,M,,0000*4F

$GPGSA,A,3,26,16,31,57,10,32,27,,,,,,2.4,1.6,1.8*3C

$GPRMC,180144.000,A,1333.0242,N,08000.0865,E,0.42,320.08,210817,,,A*61

$GPGGA,180145.000,1333.0237,N,08000.0867,E,1,07,1.6,24.2,M,-86.9,M,,0000*4E

$GPGSA,A,3,26,16,31,57,10,32,27,,,,,,2.4,1.6,1.8*3C

$GPRMC,180145.000,A,1333.0237,N,08000.0867,E,0.25,320.08,210817,,,A*61

$GPGGA,180146.000,1333.0234,N,08000.0867,E,1,07,1.6,24.0,M,-86.9,M,,0000*4C

$GPGSA,A,3,26,16,31,57,10,32,27,,,,,,2.4,1.6,1.8*3C

$GPRMC,180146.000,A,1333.0234,N,08000.0867,E,0.20,320.08,210817,,,A*64

$GPGGA,180147.000,1333.0233,N,08000.0867,E,1,07,1.6,23.8,M,-86.9,M,,0000*45

$GPGSA,A,3,26,16,31,57,10,32,27,,,,,,2.4,1.6,1.8*3C

$GPGSV,3,1,12,26,62,117,23,16,45,167,29,31,38,018,16,57,28,127,27*7D

$GPGSV,3,2,12,10,23,137,22,32,23,067,13,27,08,175,17,08,00,206,04*7D

$GPGSV,3,3,12,39,26,263,,22,45,325,,14,30,046,,01,29,270,*7D

$GPRMC,180147.000,A,1333.0233,N,08000.0867,E,0.09,320.08,210817,,,A*69

$GPGGA,180148.000,1333.0233,N,08000.0867,E,1,07,1.6,23.6,M,-86.9,M,,0000*44

$GPGSA,A,3,26,16,31,57,10,32,27,,,,,,2.4,1.6,1.8*3C

$GPRMC,180148.000,A,1333.0233,N,08000.0867,E,0.43,320.08,210817,,,A*68

$GPGGA,180149.000,1333.0233,N,08000.0867,E,1,07,1.6,23.6,M,-86.9,M,,0000*45

$GPGSA,A,3,26,16,31,57,10,32,27,,,,,,2.4,1.6,1.8*3C

$GPRMC,180149.000,A,1333.0233,N,08000.0867,E,0.48,320.08,210817,,,A*62

$GPGGA,180150.000,1333.0230,N,08000.0866,E,1,07,1.6,23.3,M,-86.9,M,,0000*4A

$GPGSA,A,3,26,16,31,57,10,32,27,,,,,,2.4,1.6,1.8*3C

$GPRMC,180150.000,A,1333.0230,N,08000.0866,E,0.35,320.08,210817,,,A*62

$GPGGA,180151.000,1333.0226,N,08000.0865,E,1,07,1.6,23.2,M,-86.9,M,,0000*4E

$GPGSA,A,3,26,16,31,57,10,32,27,,,,,,2.4,1.6,1.8*3C

$GPRMC,180151.000,A,1333.0226,N,08000.0865,E,0.30,320.08,210817,,,A*62

$GPGGA,180152.000,1333.0226,N,08000.0864,E,1,07,1.6,23.0,M,-86.9,M,,0000*4E

$GPGSA,A,3,26,16,31,57,10,32,27,,,,,,2.4,1.6,1.8*3C

$GPGSV,3,1,12,26,62,117,24,16,45,167,29,31,38,018,17,57,28,127,27*7B

$GPGSV,3,2,12,10,23,137,23,32,23,067,13,27,08,175,09,08,00,206,04*73

$GPGSV,3,3,12,39,26,263,,22,45,325,,14,30,046,,01,29,270,*7D

$GPRMC,180152.000,A,1333.0226,N,08000.0864,E,0.10,320.08,210817,,,A*62

$GPGGA,180153.000,1333.0225,N,08000.0863,E,1,06,2.0,22.8,M,-86.9,M,,0000*46

$GPGSA,A,3,26,16,31,57,10,27,,,,,,,2.8,2.0,2.0*3F

$GPRMC,180153.000,A,1333.0225,N,08000.0863,E,0.15,320.08,210817,,,A*62

$GPGGA,180154.000,1333.0223,N,08000.0862,E,1,06,2.0,22.3,M,-86.9,M,,0000*4D

$GPGSA,A,3,26,16,31,57,10,27,,,,,,,2.8,2.0,2.0*3F

$GPRMC,180154.000,A,1333.0223,N,08000.0862,E,0.33,320.08,210817,,,A*66

$GPGGA,180155.000,1333.0225,N,08000.0860,E,1,07,1.6,21.7,M,-86.9,M,,0000*4B

$GPGSA,A,3,26,16,31,57,10,32,27,,,,,,2.4,1.6,1.8*3C

$GPRMC,180155.000,A,1333.0225,N,08000.0860,E,0.36,320.08,210817,,,A*66

$GPGGA,180156.000,1333.0225,N,08000.0859,E,1,07,1.6,21.2,M,-86.9,M,,0000*47

$GPGSA,A,3,26,16,31,57,10,32,27,,,,,,2.4,1.6,1.8*3C

$GPRMC,180156.000,A,1333.0225,N,08000.0859,E,0.03,320.08,210817,,,A*69

$GPGGA,180157.000,1333.0224,N,08000.0857,E,1,06,2.0,20.8,M,-86.9,M,,0000*46

$GPGSA,A,3,26,16,31,57,10,27,,,,,,,2.8,2.0,2.0*3F

$GPGSV,3,1,12,26,62,117,25,16,45,167,29,31,38,018,16,57,28,127,27*7B

$GPGSV,3,2,12,10,23,137,23,27,08,175,11,32,23,067,07,37,21,259,*7E

$GPGSV,3,3,12,22,45,325,,14,30,046,,01,29,270,,03,21,325,*70

$GPRMC,180157.000,A,1333.0224,N,08000.0857,E,0.10,320.08,210817,,,A*65

$GPGGA,180158.000,1333.0223,N,08000.0856,E,1,06,2.0,20.5,M,-86.9,M,,0000*42

$GPGSA,A,3,26,16,31,57,10,27,,,,,,,2.8,2.0,2.0*3F

$GPRMC,180158.000,A,1333.0223,N,08000.0856,E,0.50,320.08,210817,,,A*68

$GPGGA,180159.000,1333.0224,N,08000.0855,E,1,06,2.0,20.4,M,-86.9,M,,0000*46

$GPGSA,A,3,26,16,31,57,10,27,,,,,,,2.8,2.0,2.0*3F

$GPRMC,180159.000,A,1333.0224,N,08000.0855,E,0.42,320.08,210817,,,A*6E

$GPGGA,180200.000,1333.0225,N,08000.0854,E,1,06,2.0,20.4,M,-86.9,M,,0000*49

$GPGSA,A,3,26,16,31,57,10,27,,,,,,,2.8,2.0,2.0*3F

$GPRMC,180200.000,A,1333.0225,N,08000.0854,E,0.23,320.08,210817,,,A*66

$GPGGA,180201.000,1333.0224,N,08000.0854,E,1,06,2.0,20.3,M,-86.9,M,,0000*4E

$GPGSA,A,3,26,16,31,57,10,27,,,,,,,2.8,2.0,2.0*3F

$GPRMC,180201.000,A,1333.0224,N,08000.0854,E,0.57,320.08,210817,,,A*65

$GPGGA,180202.000,1333.0222,N,08000.0853,E,1,06,2.0,20.1,M,-86.9,M,,0000*4E

$GPGSA,A,3,26,16,31,57,10,27,,,,,,,2.8,2.0,2.0*3F

$GPGSV,3,1,12,26,62,117,25,16,45,167,29,31,38,018,15,57,28,127,27*78

$GPGSV,3,2,12,10,23,137,24,27,08,175,22,32,23,067,06,37,21,259,*78

$GPGSV,3,3,12,22,45,325,,14,30,046,,01,29,270,,03,21,325,*70

$GPRMC,180202.000,A,1333.0222,N,08000.0853,E,0.24,320.08,210817,,,A*63

$GPGGA,180203.000,1333.0220,N,08000.0853,E,1,06,2.0,19.9,M,-86.9,M,,0000*4F

$GPGSA,A,3,26,16,31,57,10,27,,,,,,,2.8,2.0,2.0*3F

$GPRMC,180203.000,A,1333.0220,N,08000.0853,E,0.31,320.08,210817,,,A*64

$GPGGA,180204.000,1333.0220,N,08000.0853,E,1,06,2.0,19.7,M,-86.9,M,,0000*46

$GPGSA,A,3,26,16,31,57,10,27,,,,,,,2.8,2.0,2.0*3F

$GPRMC,180204.000,A,1333.0220,N,08000.0853,E,0.16,320.08,210817,,,A*66

$GPGGA,180205.000,1333.0221,N,08000.0853,E,1,06,2.0,19.8,M,-86.9,M,,0000*49

$GPGSA,A,3,26,16,31,57,10,27,,,,,,,2.8,2.0,2.0*3F

$GPRMC,180205.000,A,1333.0221,N,08000.0853,E,0.10,320.08,210817,,,A*60

$GPGGA,180206.000,1333.0223,N,08000.0852,E,1,05,3.0,19.7,M,-86.9,M,,0000*44

$GPGSA,A,3,26,16,31,57,10,,,,,,,,4.5,3.0,3.2*33

$GPRMC,180206.000,A,1333.0223,N,08000.0852,E,0.33,320.08,210817,,,A*61

$GPGGA,180207.000,1333.0228,N,08000.0850,E,1,05,3.0,19.6,M,-86.9,M,,0000*4D

$GPGSA,A,3,26,16,31,57,10,,,,,,,,4.5,3.0,3.2*33

$GPGSV,3,1,12,26,62,117,26,16,45,167,29,31,38,018,15,57,28,127,28*74

$GPGSV,3,2,12,10,23,137,24,27,08,175,07,32,23,067,04,37,21,259,*7D

$GPGSV,3,3,12,22,45,325,,14,30,046,,01,29,270,,03,21,325,*70

$GPRMC,180207.000,A,1333.0228,N,08000.0850,E,0.86,320.08,210817,,,A*67

$GPGGA,180208.000,1333.0231,N,08000.0849,E,1,06,2.0,19.5,M,-86.9,M,,0000*43

$GPGSA,A,3,26,16,31,57,10,27,,,,,,,2.8,2.0,2.0*3F

$GPRMC,180208.000,A,1333.0231,N,08000.0849,E,0.96,320.08,210817,,,A*69

$GPGGA,180209.000,1333.0234,N,08000.0848,E,1,06,2.0,19.3,M,-86.9,M,,0000*40

$GPGSA,A,3,26,16,31,57,10,27,,,,,,,2.8,2.0,2.0*3F

$GPRMC,180209.000,A,1333.0234,N,08000.0848,E,1.35,342.01,210817,,,A*69

$GPGGA,180210.000,1333.0238,N,08000.0846,E,1,06,2.0,18.9,M,-86.9,M,,0000*41

$GPGSA,A,3,26,16,31,57,10,27,,,,,,,2.8,2.0,2.0*3F

$GPRMC,180210.000,A,1333.0238,N,08000.0846,E,1.70,344.60,210817,,,A*63

$GPGGA,180211.000,1333.0239,N,08000.0845,E,1,06,2.0,18.4,M,-86.9,M,,0000*4F

$GPGSA,A,3,26,16,31,57,10,27,,,,,,,2.8,2.0,2.0*3F

$GPRMC,180211.000,A,1333.0239,N,08000.0845,E,1.58,343.99,210817,,,A*6B

$GPGGA,180212.000,1333.0241,N,08000.0844,E,1,06,2.0,18.2,M,-86.9,M,,0000*44

$GPGSA,A,3,26,16,31,57,10,27,,,,,,,2.8,2.0,2.0*3F

$GPGSV,3,1,12,26,62,117,26,16,45,167,28,31,38,018,15,57,28,127,28*75

$GPGSV,3,2,12,10,23,137,23,27,08,175,13,08,00,206,14,32,23,067,04*7F

$GPGSV,3,3,12,37,21,259,,22,45,325,,14,30,046,,01,29,270,*7D

$GPRMC,180212.000,A,1333.0241,N,08000.0844,E,1.60,343.89,210817,,,A*6C

$GPGGA,180213.000,1333.0245,N,08000.0843,E,1,06,2.0,18.1,M,-86.9,M,,0000*45

$GPGSA,A,3,26,16,31,57,10,27,,,,,,,2.8,2.0,2.0*3F

$GPRMC,180213.000,A,1333.0245,N,08000.0843,E,1.87,344.47,210817,,,A*62

$GPGGA,180214.000,1333.0249,N,08000.0842,E,1,06,2.0,18.1,M,-86.9,M,,0000*4F

$GPGSA,A,3,26,16,31,57,10,27,,,,,,,2.8,2.0,2.0*3F

$GPRMC,180214.000,A,1333.0249,N,08000.0842,E,1.85,344.53,210817,,,A*6F

$GPGGA,180215.000,1333.0253,N,08000.0840,E,1,06,2.0,18.0,M,-86.9,M,,0000*46

$GPGSA,A,3,26,16,31,57,10,27,,,,,,,2.8,2.0,2.0*3F

$GPRMC,180215.000,A,1333.0253,N,08000.0840,E,1.78,344.40,210817,,,A*67

$GPGGA,180216.000,1333.0255,N,08000.0839,E,1,06,2.0,17.8,M,-86.9,M,,0000*4A

$GPGSA,A,3,26,16,31,57,10,27,,,,,,,2.8,2.0,2.0*3F

$GPRMC,180216.000,A,1333.0255,N,08000.0839,E,1.55,343.39,210817,,,A*6A

$GPGGA,180217.000,1333.0256,N,08000.0838,E,1,06,2.0,17.6,M,-86.9,M,,0000*47

$GPGSA,A,3,26,16,31,57,10,27,,,,,,,2.8,2.0,2.0*3F

$GPGSV,3,1,12,26,62,117,26,16,45,167,27,31,38,018,15,57,28,127,28*7A

$GPGSV,3,2,12,10,23,137,23,27,08,175,14,08,00,206,15,32,23,067,04*79

$GPGSV,3,3,12,37,21,259,,22,45,325,,14,30,046,,01,29,270,*7D

$GPRMC,180217.000,A,1333.0256,N,08000.0838,E,1.29,343.15,210817,,,A*6C

$GPGGA,180218.000,1333.0258,N,08000.0838,E,1,06,2.0,17.6,M,-86.9,M,,0000*46

$GPGSA,A,3,26,16,31,57,10,27,,,,,,,2.8,2.0,2.0*3F

$GPRMC,180218.000,A,1333.0258,N,08000.0838,E,1.12,343.15,210817,,,A*65

$GPGGA,180219.000,1333.0259,N,08000.0838,E,1,06,2.0,17.6,M,-86.9,M,,0000*46

$GPGSA,A,3,26,16,31,57,10,27,,,,,,,2.8,2.0,2.0*3F

$GPRMC,180219.000,A,1333.0259,N,08000.0838,E,0.85,343.15,210817,,,A*6A

$GPGGA,180220.000,1333.0257,N,08000.0839,E,1,06,2.0,17.5,M,-86.9,M,,0000*40

$GPGSA,A,3,26,16,31,57,10,27,,,,,,,2.8,2.0,2.0*3F

$GPRMC,180220.000,A,1333.0257,N,08000.0839,E,0.20,343.15,210817,,,A*60

$GPGGA,180221.000,1333.0258,N,08000.0839,E,1,06,2.0,17.4,M,-86.9,M,,0000*4F

$GPGSA,A,3,26,16,31,57,10,27,,,,,,,2.8,2.0,2.0*3F

$GPRMC,180221.000,A,1333.0258,N,08000.0839,E,0.75,343.15,210817,,,A*6E

$GPGGA,180222.000,1333.0259,N,08000.0839,E,1,06,2.0,17.5,M,-86.9,M,,0000*4C

$GPGSA,A,3,26,16,31,57,10,27,,,,,,,2.8,2.0,2.0*3F

$GPGSV,3,1,12,26,62,117,25,16,45,167,27,31,38,018,14,57,28,127,29*79

$GPGSV,3,2,12,10,23,137,22,27,08,175,14,08,00,206,15,32,23,067,07*7B

$GPGSV,3,3,12,37,21,259,,22,45,325,,14,30,046,,01,29,270,*7D

$GPRMC,180222.000,A,1333.0259,N,08000.0839,E,0.84,343.15,210817,,,A*62

$GPGGA,180223.000,1333.0263,N,08000.0838,E,1,06,2.0,17.6,M,-86.9,M,,0000*46

$GPGSA,A,3,26,16,31,57,10,27,,,,,,,2.8,2.0,2.0*3F

$GPRMC,180223.000,A,1333.0263,N,08000.0838,E,1.08,343.15,210817,,,A*6E

$GPGGA,180224.000,1333.0265,N,08000.0838,E,1,06,2.0,17.6,M,-86.9,M,,0000*47

$GPGSA,A,3,26,16,31,57,10,27,,,,,,,2.8,2.0,2.0*3F

$GPRMC,180224.000,A,1333.0265,N,08000.0838,E,1.00,343.15,210817,,,A*67

$GPGGA,180225.000,1333.0265,N,08000.0838,E,1,06,2.0,17.5,M,-86.9,M,,0000*45

$GPGSA,A,3,26,16,31,57,10,27,,,,,,,2.8,2.0,2.0*3F

$GPRMC,180225.000,A,1333.0265,N,08000.0838,E,0.75,343.15,210817,,,A*65

$GPGGA,180226.000,1333.0266,N,08000.0839,E,1,06,2.0,17.5,M,-86.9,M,,0000*44

$GPGSA,A,3,26,16,31,57,10,27,,,,,,,2.8,2.0,2.0*3F

$GPRMC,180226.000,A,1333.0266,N,08000.0839,E,0.52,343.15,210817,,,A*61

$GPGGA,180227.000,1333.0269,N,08000.0839,E,1,06,2.0,17.4,M,-86.9,M,,0000*4B

$GPGSA,A,3,26,16,31,57,10,27,,,,,,,2.8,2.0,2.0*3F

$GPGSV,3,1,12,26,62,117,18,16,45,167,26,31,38,018,13,57,28,127,29*71

$GPGSV,3,2,12,10,23,137,22,27,08,175,13,01,29,270,13,08,00,206,15*77

$GPGSV,3,3,12,32,23,067,04,42,20,097,,22,45,325,,14,30,046,*74

$GPRMC,180227.000,A,1333.0269,N,08000.0839,E,0.67,343.15,210817,,,A*69

$GPGGA,180228.000,1333.0275,N,08000.0836,E,1,06,2.0,17.4,M,-86.9,M,,0000*46

$GPGSA,A,3,26,16,31,57,10,27,,,,,,,2.8,2.0,2.0*3F

$GPRMC,180228.000,A,1333.0275,N,08000.0836,E,1.15,343.15,210817,,,A*60

$GPGGA,180229.000,1333.0276,N,08000.0834,E,1,06,2.0,17.4,M,-86.9,M,,0000*46

$GPGSA,A,3,26,16,31,57,10,27,,,,,,,2.8,2.0,2.0*3F

$GPRMC,180229.000,A,1333.0276,N,08000.0834,E,0.82,343.15,210817,,,A*6F

$GPGGA,180230.000,1333.0274,N,08000.0834,E,1,06,2.0,17.6,M,-86.9,M,,0000*4E

$GPGSA,A,3,26,16,31,57,10,27,,,,,,,2.8,2.0,2.0*3F

$GPRMC,180230.000,A,1333.0274,N,08000.0834,E,0.14,343.15,210817,,,A*6A

$GPGGA,180231.000,1333.0272,N,08000.0834,E,1,06,2.0,17.6,M,-86.9,M,,0000*49

$GPGSA,A,3,26,16,31,57,10,27,,,,,,,2.8,2.0,2.0*3F

$GPRMC,180231.000,A,1333.0272,N,08000.0834,E,0.29,343.15,210817,,,A*63

$GPGGA,180232.000,1333.0271,N,08000.0833,E,1,06,2.0,17.6,M,-86.9,M,,0000*4E

$GPGSA,A,3,26,16,31,57,10,27,,,,,,,2.8,2.0,2.0*3F

$GPGSV,3,1,12,26,62,117,21,16,45,167,25,31,38,018,12,57,28,127,29*79

$GPGSV,3,2,12,10,23,137,23,27,08,175,12,08,00,206,17,32,23,067,06*7F

$GPGSV,3,3,12,42,20,097,,22,45,325,,14,30,046,,01,29,270,*7E

$GPRMC,180232.000,A,1333.0271,N,08000.0833,E,0.35,343.15,210817,,,A*69

$GPGGA,180233.000,1333.0272,N,08000.0832,E,1,06,2.0,17.5,M,-86.9,M,,0000*4E

$GPGSA,A,3,26,16,31,57,10,27,,,,,,,2.8,2.0,2.0*3F

$GPRMC,180233.000,A,1333.0272,N,08000.0832,E,0.12,343.15,210817,,,A*6F

$GPGGA,180234.000,1333.0272,N,08000.0832,E,1,06,2.0,17.4,M,-86.9,M,,0000*48

$GPGSA,A,3,26,16,31,57,10,27,,,,,,,2.8,2.0,2.0*3F

$GPRMC,180234.000,A,1333.0272,N,08000.0832,E,0.28,343.15,210817,,,A*61

$GPGGA,180235.000,1333.0272,N,08000.0830,E,1,06,2.0,17.5,M,-86.9,M,,0000*4A

$GPGSA,A,3,26,16,31,57,10,27,,,,,,,2.8,2.0,2.0*3F

$GPRMC,180235.000,A,1333.0272,N,08000.0830,E,0.22,343.15,210817,,,A*68

$GPGGA,180236.000,1333.0272,N,08000.0828,E,1,05,6.1,17.6,M,-86.9,M,,0000*45

$GPGSA,A,3,26,16,57,10,27,,,,,,,,7.7,6.1,4.7*33

$GPRMC,180236.000,A,1333.0272,N,08000.0828,E,0.06,343.15,210817,,,A*64

$GPGGA,180237.000,1333.0274,N,08000.0827,E,1,05,6.1,17.7,M,-86.9,M,,0000*4C

$GPGSA,A,3,26,16,57,10,27,,,,,,,,7.7,6.1,4.7*33

$GPGSV,3,1,12,26,62,117,21,16,45,167,24,57,28,127,30,10,23,137,25*71

$GPGSV,3,2,12,27,08,175,11,08,00,206,18,32,23,067,05,42,20,097,*7E

$GPGSV,3,3,12,22,45,325,,31,38,018,,14,30,046,,01,29,270,*74

$GPRMC,180237.000,A,1333.0274,N,08000.0827,E,0.19,343.15,210817,,,A*62

$GPGGA,180238.000,1333.0276,N,08000.0827,E,1,05,6.1,17.7,M,-86.9,M,,0000*41

$GPGSA,A,3,26,16,57,10,27,,,,,,,,7.7,6.1,4.7*33

$GPRMC,180238.000,A,1333.0276,N,08000.0827,E,0.36,343.15,210817,,,A*62

$GPGGA,180239.000,1333.0276,N,08000.0824,E,1,05,6.1,17.8,M,-86.9,M,,0000*4C

$GPGSA,A,3,26,16,57,10,27,,,,,,,,7.7,6.1,4.7*33

$GPRMC,180239.000,A,1333.0276,N,08000.0824,E,0.38,343.15,210817,,,A*6E

$GPGGA,180240.000,1333.0277,N,08000.0821,E,1,05,6.1,17.8,M,-86.9,M,,0000*46

$GPGSA,A,3,26,16,57,10,27,,,,,,,,7.7,6.1,4.7*33

$GPRMC,180240.000,A,1333.0277,N,08000.0821,E,0.22,343.15,210817,,,A*6F

$GPGGA,180241.000,1333.0278,N,08000.0821,E,1,06,2.7,17.7,M,-86.9,M,,0000*46

$GPGSA,A,3,26,16,57,10,32,27,,,,,,,3.3,2.7,1.9*3B

$GPRMC,180241.000,A,1333.0278,N,08000.0821,E,0.23,343.15,210817,,,A*60

$GPGGA,180242.000,1333.0283,N,08000.0819,E,1,06,2.7,17.6,M,-86.9,M,,0000*4B

$GPGSA,A,3,26,16,57,10,32,27,,,,,,,3.3,2.7,1.9*3B

$GPGSV,3,1,12,26,62,117,21,16,45,167,25,57,28,127,30,10,23,137,26*73

$GPGSV,3,2,12,32,23,067,12,27,08,175,13,08,00,206,19,14,30,046,08*7D

$GPGSV,3,3,12,42,20,097,,22,45,325,,31,38,018,,01,29,270,*7A

$GPRMC,180242.000,A,1333.0283,N,08000.0819,E,0.90,343.15,210817,,,A*64

$GPGGA,180243.000,1333.0286,N,08000.0818,E,1,05,6.1,17.5,M,-86.9,M,,0000*4C

$GPGSA,A,3,26,16,57,10,27,,,,,,,,7.7,6.1,4.7*33

$GPRMC,180243.000,A,1333.0286,N,08000.0818,E,1.09,343.15,210817,,,A*60

$GPGGA,180244.000,1333.0288,N,08000.0818,E,1,05,6.1,17.4,M,-86.9,M,,0000*44

$GPGSA,A,3,26,16,57,10,27,,,,,,,,7.7,6.1,4.7*33

$GPRMC,180244.000,A,1333.0288,N,08000.0818,E,0.91,343.15,210817,,,A*69

$GPGGA,180245.000,1333.0289,N,08000.0817,E,1,05,6.1,17.3,M,-86.9,M,,0000*4C

$GPGSA,A,3,26,16,57,10,27,,,,,,,,7.7,6.1,4.7*33

$GPRMC,180245.000,A,1333.0289,N,08000.0817,E,0.90,343.15,210817,,,A*67

$GPGGA,180246.000,1333.0289,N,08000.0816,E,1,05,6.1,17.3,M,-86.9,M,,0000*4E

$GPGSA,A,3,26,16,57,10,27,,,,,,,,7.7,6.1,4.7*33

$GPRMC,180246.000,A,1333.0289,N,08000.0816,E,0.57,343.15,210817,,,A*6E

$GPGGA,180247.000,1333.0290,N,08000.0816,E,1,05,6.1,17.3,M,-86.9,M,,0000*47

$GPGSA,A,3,26,16,57,10,27,,,,,,,,7.7,6.1,4.7*33

$GPGSV,3,1,12,26,62,117,22,16,45,167,25,57,28,127,30,10,23,137,27*71

$GPGSV,3,2,12,27,08,175,14,08,00,206,20,14,30,046,06,32,23,067,05*78

$GPGSV,3,3,12,42,20,097,,22,45,325,,31,38,018,,01,29,270,*7A

$GPRMC,180247.000,A,1333.0290,N,08000.0816,E,0.51,343.15,210817,,,A*61

$GPGGA,180248.000,1333.0292,N,08000.0814,E,1,05,6.1,17.3,M,-86.9,M,,0000*48

$GPGSA,A,3,26,16,57,10,27,,,,,,,,7.7,6.1,4.7*33

$GPRMC,180248.000,A,1333.0292,N,08000.0814,E,0.65,343.15,210817,,,A*69

$GPGGA,180249.000,1333.0292,N,08000.0812,E,1,05,6.1,17.2,M,-86.9,M,,0000*4E

$GPGSA,A,3,26,16,57,10,27,,,,,,,,7.7,6.1,4.7*33

$GPRMC,180249.000,A,1333.0292,N,08000.0812,E,0.66,343.15,210817,,,A*6D

$GPGGA,180250.000,1333.0293,N,08000.0809,E,1,05,6.1,17.1,M,-86.9,M,,0000*4E

$GPGSA,A,3,26,16,57,10,27,,,,,,,,7.7,6.1,4.7*33

$GPRMC,180250.000,A,1333.0293,N,08000.0809,E,0.85,343.15,210817,,,A*63

$GPGGA,180251.000,1333.0291,N,08000.0808,E,1,05,6.1,17.0,M,-86.9,M,,0000*4D

$GPGSA,A,3,26,16,57,10,27,,,,,,,,7.7,6.1,4.7*33

$GPRMC,180251.000,A,1333.0291,N,08000.0808,E,0.70,343.15,210817,,,A*6B

$GPGGA,180252.000,1333.0289,N,08000.0809,E,1,05,6.1,16.7,M,-86.9,M,,0000*40

$GPGSA,A,3,26,16,57,10,27,,,,,,,,7.7,6.1,4.7*33

$GPGSV,3,1,12,26,62,117,23,16,45,167,24,57,28,127,30,10,23,137,27*71

$GPGSV,3,2,12,27,08,175,13,08,00,206,21,14,30,046,04,32,23,067,07*7E

$GPGSV,3,3,12,42,20,097,,22,45,325,,31,38,018,,01,29,270,*7A

$GPRMC,180252.000,A,1333.0289,N,08000.0809,E,0.84,343.15,210817,,,A*6B

$GPGGA,180253.000,1333.0285,N,08000.0810,E,1,05,6.1,16.5,M,-86.9,M,,0000*47

$GPGSA,A,3,26,16,57,10,27,,,,,,,,7.7,6.1,4.7*33

$GPRMC,180253.000,A,1333.0285,N,08000.0810,E,0.64,343.15,210817,,,A*60

$GPGGA,180254.000,1333.0283,N,08000.0810,E,1,05,6.1,16.4,M,-86.9,M,,0000*47

$GPGSA,A,3,26,16,57,10,27,,,,,,,,7.7,6.1,4.7*33

$GPRMC,180254.000,A,1333.0283,N,08000.0810,E,0.46,343.15,210817,,,A*61

$GPGGA,180255.000,1333.0278,N,08000.0813,E,1,05,6.1,16.1,M,-86.9,M,,0000*44

$GPGSA,A,3,26,16,57,10,27,,,,,,,,7.7,6.1,4.7*33

$GPRMC,180255.000,A,1333.0278,N,08000.0813,E,0.38,343.15,210817,,,A*6E

$GPGGA,180256.000,1333.0271,N,08000.0816,E,1,06,2.7,15.8,M,-86.9,M,,0000*40

$GPGSA,A,3,26,16,57,10,32,27,,,,,,,3.3,2.7,1.9*3B

$GPRMC,180256.000,A,1333.0271,N,08000.0816,E,0.06,343.15,210817,,,A*6C

$GPGGA,180257.000,1333.0267,N,08000.0816,E,1,06,2.7,15.5,M,-86.9,M,,0000*4B

$GPGSA,A,3,26,16,57,10,32,27,,,,,,,3.3,2.7,1.9*3B

$GPGSV,3,1,12,26,62,117,24,16,45,167,24,57,28,127,30,10,23,137,27*76

$GPGSV,3,2,12,32,23,067,08,27,08,175,13,08,00,206,23,14,30,046,04*73

$GPGSV,3,3,12,41,73,167,,22,45,325,,31,38,018,,01,29,270,*71

$GPRMC,180257.000,A,1333.0267,N,08000.0816,E,0.11,343.15,210817,,,A*6C

$GPGGA,180258.000,1333.0258,N,08000.0817,E,1,05,6.1,15.3,M,-86.9,M,,0000*4E

$GPGSA,A,3,26,16,57,10,27,,,,,,,,7.7,6.1,4.7*33

$GPRMC,180258.000,A,1333.0258,N,08000.0817,E,0.38,343.15,210817,,,A*65

$GPGGA,180259.000,1333.0257,N,08000.0816,E,1,06,2.7,15.0,M,-86.9,M,,0000*43

$GPGSA,A,3,26,16,57,10,32,27,,,,,,,3.3,2.7,1.9*3B

$GPRMC,180259.000,A,1333.0257,N,08000.0816,E,0.22,343.15,210817,,,A*61

$GPGGA,180300.000,1333.0256,N,08000.0817,E,1,06,2.7,14.6,M,-86.9,M,,0000*49

$GPGSA,A,3,26,16,57,10,32,27,,,,,,,3.3,2.7,1.9*3B

$GPRMC,180300.000,A,1333.0256,N,08000.0817,E,0.28,343.15,210817,,,A*66

$GPGGA,180301.000,1333.0254,N,08000.0817,E,1,06,2.7,14.4,M,-86.9,M,,0000*48

$GPGSA,A,3,26,16,57,10,32,27,,,,,,,3.3,2.7,1.9*3B

$GPRMC,180301.000,A,1333.0254,N,08000.0817,E,0.32,343.15,210817,,,A*6E

$GPGGA,180302.000,1333.0255,N,08000.0819,E,1,06,2.7,14.3,M,-86.9,M,,0000*43

$GPGSA,A,3,26,16,57,10,32,27,,,,,,,3.3,2.7,1.9*3B

$GPGSV,3,1,12,26,62,117,23,16,45,167,24,57,28,127,30,10,23,137,27*71

$GPGSV,3,2,12,32,23,067,09,27,08,175,13,08,00,206,23,41,73,167,*73

$GPGSV,3,3,12,22,45,325,,31,38,018,,14,30,046,,01,29,270,*74

$GPRMC,180302.000,A,1333.0255,N,08000.0819,E,0.30,343.15,210817,,,A*60

$GPGGA,180303.000,1333.0253,N,08000.0822,E,1,06,2.7,14.2,M,-86.9,M,,0000*4D

$GPGSA,A,3,26,16,57,10,32,27,,,,,,,3.3,2.7,1.9*3B

$GPRMC,180303.000,A,1333.0253,N,08000.0822,E,0.23,343.15,210817,,,A*6D

$GPGGA,180304.000,1333.0252,N,08000.0825,E,1,06,2.7,14.1,M,-86.9,M,,0000*4F

$GPGSA,A,3,26,16,57,10,32,27,,,,,,,3.3,2.7,1.9*3B

$GPRMC,180304.000,A,1333.0252,N,08000.0825,E,0.44,343.15,210817,,,A*6D

$GPGGA,180305.000,1333.0251,N,08000.0827,E,1,06,2.7,14.0,M,-86.9,M,,0000*4E

$GPGSA,A,3,26,16,57,10,32,27,,,,,,,3.3,2.7,1.9*3B

$GPRMC,180305.000,A,1333.0251,N,08000.0827,E,0.39,343.15,210817,,,A*67

$GPGGA,180306.000,1333.0249,N,08000.0826,E,1,06,2.7,14.0,M,-86.9,M,,0000*45

$GPGSA,A,3,26,16,57,10,32,27,,,,,,,3.3,2.7,1.9*3B

$GPRMC,180306.000,A,1333.0249,N,08000.0826,E,0.64,343.15,210817,,,A*64

$GPGGA,180307.000,1333.0244,N,08000.0825,E,1,06,2.7,13.9,M,-86.9,M,,0000*44

$GPGSA,A,3,26,16,57,10,32,27,,,,,,,3.3,2.7,1.9*3B

$GPGSV,3,1,12,26,62,117,23,16,45,167,24,57,28,127,31,10,23,137,27*70

$GPGSV,3,2,12,32,23,067,09,27,08,175,14,08,00,206,24,41,73,167,*73

$GPGSV,3,3,12,22,45,325,,31,38,018,,14,30,046,,01,29,270,*74

$GPRMC,180307.000,A,1333.0244,N,08000.0825,E,1.32,277.45,210817,,,A*6A

$GPGGA,180308.000,1333.0243,N,08000.0825,E,1,06,2.7,13.9,M,-86.9,M,,0000*4C

$GPGSA,A,3,26,16,57,10,32,27,,,,,,,3.3,2.7,1.9*3B

$GPRMC,180308.000,A,1333.0243,N,08000.0825,E,0.83,277.45,210817,,,A*69

$GPGGA,180309.000,1333.0240,N,08000.0827,E,1,06,2.7,13.8,M,-86.9,M,,0000*4D

$GPGSA,A,3,26,16,57,10,32,27,,,,,,,3.3,2.7,1.9*3B

$GPRMC,180309.000,A,1333.0240,N,08000.0827,E,0.43,277.45,210817,,,A*65

$GPGGA,180310.000,1333.0242,N,08000.0827,E,1,06,2.7,13.9,M,-86.9,M,,0000*46

$GPGSA,A,3,26,16,57,10,32,27,,,,,,,3.3,2.7,1.9*3B

$GPRMC,180310.000,A,1333.0242,N,08000.0827,E,0.21,277.45,210817,,,A*6B

$GPGGA,180311.000,1333.0241,N,08000.0833,E,1,05,6.1,14.0,M,-86.9,M,,0000*4E

$GPGSA,A,3,26,16,57,10,27,,,,,,,,7.7,6.1,4.7*33

$GPRMC,180311.000,A,1333.0241,N,08000.0833,E,0.14,277.45,210817,,,A*6A

$GPGGA,180312.000,1333.0240,N,08000.0839,E,1,05,6.1,14.0,M,-86.9,M,,0000*46

$GPGSA,A,3,26,16,57,10,27,,,,,,,,7.7,6.1,4.7*33

$GPGSV,3,1,12,26,62,117,23,16,45,167,24,57,28,127,31,10,23,137,26*71

$GPGSV,3,2,12,27,08,175,16,08,00,206,24,32,23,067,07,41,73,167,*7F

$GPGSV,3,3,12,22,45,325,,31,38,018,,14,30,046,,01,29,270,*74

$GPRMC,180312.000,A,1333.0240,N,08000.0839,E,0.76,277.45,210817,,,A*66

$GPGGA,180313.000,1333.0238,N,08000.0842,E,1,05,6.1,14.0,M,-86.9,M,,0000*44

$GPGSA,A,3,26,16,57,10,27,,,,,,,,7.7,6.1,4.7*33

$GPRMC,180313.000,A,1333.0238,N,08000.0842,E,0.51,277.45,210817,,,A*61

$GPGGA,180314.000,1333.0239,N,08000.0843,E,1,05,6.1,14.0,M,-86.9,M,,0000*43

$GPGSA,A,3,26,16,57,10,27,,,,,,,,7.7,6.1,4.7*33

$GPRMC,180314.000,A,1333.0239,N,08000.0843,E,0.32,277.45,210817,,,A*63

$GPGGA,180315.000,1333.0239,N,08000.0842,E,1,05,6.1,14.0,M,-86.9,M,,0000*43

$GPGSA,A,3,26,16,57,10,27,,,,,,,,7.7,6.1,4.7*33

$GPRMC,180315.000,A,1333.0239,N,08000.0842,E,0.20,277.45,210817,,,A*60

$GPGGA,180316.000,1333.0238,N,08000.0843,E,1,05,6.1,14.0,M,-86.9,M,,0000*40

$GPGSA,A,3,26,16,57,10,27,,,,,,,,7.7,6.1,4.7*33

$GPRMC,180316.000,A,1333.0238,N,08000.0843,E,0.22,277.45,210817,,,A*61

$GPGGA,180317.000,1333.0239,N,08000.0844,E,1,05,6.1,13.9,M,-86.9,M,,0000*49

$GPGSA,A,3,26,16,57,10,27,,,,,,,,7.7,6.1,4.7*33

$GPGSV,3,1,12,26,62,117,22,16,45,167,23,57,28,127,31,10,23,137,22*73

$GPGSV,3,2,12,27,08,175,16,08,00,206,24,32,23,067,07,41,73,167,*7F

$GPGSV,3,3,12,22,45,325,,31,38,018,,14,30,046,,01,29,270,*74

$GPRMC,180317.000,A,1333.0239,N,08000.0844,E,0.33,277.45,210817,,,A*66

$GPGGA,180318.000,1333.0242,N,08000.0842,E,1,05,6.1,13.9,M,-86.9,M,,0000*4C

$GPGSA,A,3,26,16,57,10,27,,,,,,,,7.7,6.1,4.7*33

$GPRMC,180318.000,A,1333.0242,N,08000.0842,E,0.61,277.45,210817,,,A*64

$GPGGA,180319.000,1333.0241,N,08000.0843,E,1,06,2.7,14.0,M,-86.9,M,,0000*40

$GPGSA,A,3,26,16,57,10,32,27,,,,,,,3.3,2.7,1.9*3B

$GPRMC,180319.000,A,1333.0241,N,08000.0843,E,0.58,277.45,210817,,,A*6D

$GPGGA,180320.000,1333.0243,N,08000.0846,E,1,06,2.7,14.1,M,-86.9,M,,0000*4C

$GPGSA,A,3,26,16,57,10,32,27,,,,,,,3.3,2.7,1.9*3B

$GPRMC,180320.000,A,1333.0243,N,08000.0846,E,1.05,277.45,210817,,,A*69

$GPGGA,180321.000,1333.0239,N,08000.0848,E,1,06,2.7,14.2,M,-86.9,M,,0000*4D

$GPGSA,A,3,26,16,57,10,32,27,,,,,,,3.3,2.7,1.9*3B

$GPRMC,180321.000,A,1333.0239,N,08000.0848,E,0.56,277.45,210817,,,A*6C

$GPGGA,180322.000,1333.0235,N,08000.0848,E,1,06,2.7,14.4,M,-86.9,M,,0000*44

$GPGSA,A,3,26,16,57,10,32,27,,,,,,,3.3,2.7,1.9*3B

$GPGSV,3,1,12,26,62,117,21,16,45,167,22,57,28,127,31,10,23,137,22*71

$GPGSV,3,2,12,32,23,067,09,27,08,175,16,08,00,206,24,41,73,167,*71

$GPGSV,3,3,12,22,45,325,,31,38,018,,14,30,046,,01,29,270,*74

$GPRMC,180322.000,A,1333.0235,N,08000.0848,E,0.16,277.45,210817,,,A*67

$GPGGA,180323.000,1333.0236,N,08000.0844,E,1,06,2.7,14.4,M,-86.9,M,,0000*4A

$GPGSA,A,3,26,16,57,10,32,27,,,,,,,3.3,2.7,1.9*3B

$GPRMC,180323.000,A,1333.0236,N,08000.0844,E,0.69,277.45,210817,,,A*61

$GPGGA,180324.000,1333.0232,N,08000.0845,E,1,06,2.7,14.5,M,-86.9,M,,0000*49

$GPGSA,A,3,26,16,57,10,32,27,,,,,,,3.3,2.7,1.9*3B

$GPRMC,180324.000,A,1333.0232,N,08000.0845,E,0.46,277.45,210817,,,A*6E

$GPGGA,180325.000,1333.0228,N,08000.0844,E,1,06,2.7,14.6,M,-86.9,M,,0000*41

$GPGSA,A,3,26,16,57,10,32,27,,,,,,,3.3,2.7,1.9*3B

